station_id,name,lat,lon
213688169,Benjamin Godard - Victor Hugo,48.865983,2.275725
19179944124,Hôpital Mondor,48.798922410229,2.4537451531298
17278902806,Rouget de L'isle - Watteau,48.778192750803,2.3963020229163
36255,Toudouze - Clauzel,48.87929591733507,2.3373600840568547
251039991,Cassini - Denfert-Rochereau,48.837525839067,2.3360354080796
85002689,Jourdan - Stade Charléty,48.819428333369,2.3433353751898
2515829865,Basilique,48.93626891059109,2.3588666820200914
516709288,Charonne - Robert et Sonia Delaunay,48.855907555969,2.3925706744194
120827885,Messine - Place Du Pérou,48.875448033960744,2.315508019010038
66491398,Le Brun - Gobelins,48.835092787824,2.3534681351338
37874517,Saint-Sulpice,48.85165383178419,2.3308077827095985
210565680,Vaneau - Sèvres,48.848563233059,2.3204218259346
210403080,Lacépède - Monge,48.84389286531899,2.3519663885235786
210561800,Saint-Romain - Cherche-Midi,48.84708159081946,2.321374788880348
209063434,André Karman - République,48.91039875761846,2.3851355910301213
94555589,Pierre et Marie Curie - Maurice Thorez,48.81580226360801,2.376804985105991
19331959862,Bas du Mont-Mesly,48.779035118572,2.4609763908985
43195240,Silly - Galliéni,48.835583838706,2.2325500845909
501862076,Place Nelson Mandela,48.862453313908,2.1961666225454
17486274358,Jean Rostand - Paul Vaillant Couturier,48.908168131015,2.4530601033354
210566542,Square Boucicaut,48.851296433665276,2.325061820447445
85043758,Guersant - Gouvion-Saint-Cyr,48.88287775178599,2.287667370814871
210397939,Thouin - Cardinal Lemoine,48.84504716661511,2.3494647851273465
82405965,Froment - Bréguet,48.8570414504784,2.37289470306807
213682736,Morillons - Dantzig,48.83310149953933,2.299380004405976
54000559,Jouffroy d'Abbans - Wagram,48.881973298352,2.301132157445
18795078746,Charcot - Benfleet,48.878370277021,2.440523876268
210405211,Beaux-Arts - Bonaparte,48.856451985396,2.3348518833518
16560752067,Bracion - Périphérique,48.826103771275,2.3004549373748
37815204,Mairie du 12ème,48.840855311763,2.3875549435616
128986726,Boétie - Ponthieu,48.871417284355,2.3076787590981
54000581,Croulebarde - Corvisart,48.830981659316855,2.3481646925210953
13105968,Le Brix et Mesmin - Jourdan,48.82234096593411,2.327861653302471
653208733,Romainville - Vaillant-Couturier,48.86785,2.446748
19331981332,Sarrazins - Saussure,48.769626617432,2.4717841148376
54000536,Saint-Fiacre - Poissonière,48.870828911558,2.3459213599563
129094535,Porte de Saint-Ouen - Bessières,48.89792240854517,2.32851451022192
54000612,Cambrai - Benjamin Constant,48.89594736851349,2.381133802246315
80101533,Chazelles - Courcelles ,48.879406604954,2.3034455627202988
17486876370,Moulin de Pierre - Abbé Grégoire,48.822036188382,2.2754641655975
599135701,Ramponeau - Belleville,48.871031137596,2.379056852114
102747146,Lagny - Victor Basch,48.84884147189881,2.426325418925233
2515403527,Saint-Cloud - Hippodrome,48.85772148887421,2.2549109905958176
653132534,Louis Lejeune - Barbès,48.81807418981508,2.3267009854316716
506455295,Général Martial Valin - Pont du Garigliano,48.83823094269141,2.270506024360657
1057149522,Rond-point du Dr Albert Schweitzer,48.78980918988166,2.3143940046429634
653197324,Théâtre des Amandiers - Palais des sports,48.892648526839,2.2136941552162
42950839,Serrurier,48.880493403246,2.398064173758
14813797734,Raspail Barbès,48.8529945,2.4247387
88230992,De Toqueville - Terrasse,48.882428,2.314002
499303158,Jules Guesde - Pont du Port à l'Anglais,48.79628807093802,2.417212128639221
27415302,Michel-Ange - Parent de Rosan,48.840579923690115,2.2584119439125065
27414512,Caire - Dussoubs,48.86785342111862,2.349364310503006
210580039,Tour d'Auvergne - Rodier,48.879161,2.343698
49474389,Artois - Berri,48.87393521240818,2.3064258322119713
128940135,Marceau - Chaillot,48.868834023334,2.2986030816809
35149611,Liard - Amiral Mouchez,48.8214169,2.342167
1057296253,Regnault - Patay,48.82435782216384,2.377065159380436
576188379,Vigée-Lebrun - Anselme Payen,48.838683941628375,2.3110422492027287
2515085147,Italie - Tolbiac,48.82557229464416,2.3576171323657036
129107656,Félix Ziem - Armand Gauthier,48.88949630486821,2.333393658804396
210574471,Abbeville - Faubourg Poissonnière,48.879223,2.349147
1057228658,Youri Gagarine - Karl Marx,48.78448485079149,2.35908430069685
230873471,Octave Feuillet - Albéric Magnard,48.86106902949534,2.2730283066630363
129164969,Place Jean-Spire-Lemaître,48.8468428626593,2.452062070369721
129004826,Bellefond - Poissonnière,48.87759897050706,2.348463758826256
518825709,Jean Oestreicher - Porte de Champerret,48.88655580065981,2.288640439510346
128930462,Square Louis XVI,48.87320440102894,2.323658830743138
54000565,Granges aux Belles,48.8761373390584,2.3680844979417
210586093,Dunkerque - Rocroy,48.880726,2.351464
369644630,Gare de l'Est - Faubourg-Saint-Martin,48.875642647477,2.3594588041306
214114469,Gare de Nogent-le-Perreux,48.83842553348809,2.493693307042122
55927887,Gabriel Lamé,48.8351212784276,2.385534569621086
323616530,Quai de l'Horloge - Pont Neuf,48.857058739111,2.3417982839439
72765603,Boulangers - Cardinal Lemoine,48.8462904,2.3521495
16659953198,Verger - Colonel Guichard,48.816376985087,2.2670380088932
35196898,Gare d'Austerlitz - Quai Saint-Bernard,48.84369030864,2.3657163977623
43255030,Pereire - Ternes,48.87973954830735,2.288012132048607
129025451,Douai - Bruxelles,48.88320784122797,2.3308449949028507
128920403,Gare Saint-Lazare - Isly,48.874777677621296,2.326515804784655
1062192012,Gare Rosny-Bois-Perrier,48.88115023337061,2.480436824262142
521393180,Porte Pouchet-Bessières,48.8978765,2.3230632
128887067,Ségur - d'Estrées,48.851419978983,2.3097044974566
7254,Gay Lussac - Saint-Jacques,48.844730256132,2.3419239448664
17486828694,Charlot - Stade Gabriel Voisin,48.827228120536,2.268122527474
128989986,Place Georges Guillaumin,48.874750203957,2.301771435326
39799329,Faubourg Montmartre - La Fayette,48.875254549053,2.3408536612988
210582921,Boudreau - Auber,48.87219,2.329423
102317064,Lamarck - Saint-Ouen,48.891334555236,2.3272445342326
208795867,Ambroise Rendu - Porte Brunet,48.883667,2.395733
82567101,Château - République,48.862923800596,2.4155035614967
457813746,Henri Barbusse - Stalingrad,48.814183748660554,2.2872862592339516
50191171,Thionville - Ourcq,48.88917613743794,2.3833653330802917
129014600,Rossini - Laffitte,48.87334627510507,2.337980867701675
3906153622,Argenteuil - Voltaire,48.91864865955558,2.2814112156629562
129087587,Legendre - Clichy,48.88896161855884,2.322528975094376
213693511,Quai de la Seine,48.884492238407525,2.3703941702842717
82379648,Lisbonne - Monceau,48.87745567681383,2.309694221419506
66491397,Gare de Lyon - Place Louis Armand,48.845515089794,2.3726498446286
2515995748,Pesaro - Préfecture,48.89577046284005,2.223908342421055
27363162,Ranelagh - Mozart,48.8554439,2.2704418
129021753,Moncey - Blanche,48.88006587474148,2.3310810327529907
210740080,Gare du Nord - Hôpital Lariboisière,48.881949,2.352339
3906094706,Redoute - Les Courtilles,48.929867194519,2.2836696356535
80216231,Belidor - Gouvion-Saint-Cyr,48.88022154052015,2.2854680567979813
336511521,Place de Rhin et Danube,48.88192765861766,2.392586767673493
82562556,Exelmans - Versailles,48.84097491091973,2.264390252530575
129048000,Saint-Maur - Roquette,48.858688774062955,2.383553994571467
1062250686,11 Novembre 1918 - 8 Mai 1945,48.80889533774377,2.5382421165704727
129043651,Roquette - Thiéré,48.85507930579506,2.3733686318721463
27363489,Claude Decaen - Cannebière,48.83761417037952,2.397253782195704
39296638,Berri - Haussmann,48.874746047357135,2.3082953318953514
813544903,Amelot - Saint-Sébastien,48.861142162761,2.3677996181077
205938683,Delphine Seyrig - Général Leclerc,48.893923963057865,2.39790290594101
210399835,Panthéon - Valette,48.847020571652,2.3464982619671
128882438,Institut du Monde Arabe - Saint-Germain,48.849063299501,2.3558086529374
230877798,Chartres - La Charbonnière,48.8847601,2.3534657
102324803,Pyrénées - Emmery,48.872010281270974,2.392039597034455
101763163,Desaix - Edgar Faure,48.852804604940296,2.293077029857222
126050442,Pereire - Rennequin,48.88364782887555,2.2952447086572647
27414578,Notre-Dame-des-Champs - Stanislas,48.84479928858768,2.329337755887181
54000569,Saint-Ambroise - Parmentier,48.862147844548,2.3772348091006
508042092,Pyramide - Ecole du Breuil ,48.82237977153955,2.4586871266365056
42603855,Liège - Moscou,48.8795431,2.3264628
818302209,Mairie de Montreuil,48.86131452758348,2.440614402294159
1057392676,Rouget de Lisle,48.764615483395254,2.4071189761161804
129034587,Récollets - Square Villemin,48.875034655883944,2.359801238597928
261987383,Place Du Général De Gaulle,48.8687591,2.4329931
314829539,Charles de Gaulle - Beauté,48.83649602312711,2.479562651149885
1057324291,Cimetière de Montrouge,48.821466904768,2.3215785772007
583539396,Anatole France - President Roosevelt,48.9155156,2.3814103
101753100,Henry Farman,48.83372430280548,2.2713854536414146
81081358,Pajol - Place Herbert,48.8927825,2.3635598
209057581,Gabriel Péri - Francisco Ferrer,48.88633710236977,2.407338917255402
3906335682,Roger Salengro - Fontainebleau,48.814548697325,2.3611663654447
586539770,Marne - Germain Dardan,48.81217465201,2.3035024699104
597245295,Concorde - Stalingrad,48.7985844,2.3821302
235513935,Carducci - Place Hannah Arendt,48.877436681515796,2.3860743641853337
102309973,Cimetière de Montmartre,48.886472466142,2.3328901827335
532054446,Richard Lenoir - Republique,48.8667175,2.3692541
535500589,Hôpital Européen Georges Pompidou,48.837695319163,2.2753742337227
265464297,Schoelcher - Raspail,48.83681733526843,2.3312794080411474
66491385,Fontenay - Libération,48.847803063647,2.4451419711113
37815993,Mutualité,48.848225572724,2.3502873256803
13718041,Square Simon Bolivar,48.875089888322,2.3826304078102
102323152,Manin - Carrières d'Amérique,48.88467214209463,2.3919698596000676
828134511,Porte de Vanves,48.828012849445,2.3056878894567
129060764,Victor Hugo - Jeanne Jugan,48.843949064031825,2.415081394834419
586649404,Conservatoire de Musique,48.77093586667601,2.4034014344215398
596813170,Cimetière de Fontenay-sous-Bois,48.84706173362218,2.4787822365760808
596872103,Lucie Aubrac - Fort,48.818144834008976,2.271184623241425
129067920,Mouton Duvernet - Général Leclerc,48.831632518293,2.3293121159077
210749865,Port-Royal - Hôpital du Val-de-Grâce,48.837668272811,2.3448138346607
76199461,Championnet - Vauvenargues,48.89401874744574,2.3319872841238976
88140066,Rocher - Laborde,48.87590240712654,2.322616316378116
213683101,Lecourbe - Jean Maridor,48.83796366147599,2.2877392172813416
213684750,Grenelle - Violet,48.84993035512154,2.294612042605877
2515049357,Erasme - Ulm,48.84264375274712,2.3445946723222733
27364743,Marc Sangnier - Porte de Vanves,48.825218683556734,2.3107116669416428
102314792,Etienne Jodelle - Saint Ouen,48.88794016394694,2.326124420314341
35447568,Guy Môquet - Etienne Dolet,48.81527009991819,2.298078276995073
583178525,Boissière - Etienne Dolet,48.876111,2.4677312
2514995690,Chabanais - Petits Champs,48.86703740186721,2.336716018617153
66491402,Marcadet - Barbès,48.890451120965,2.3490573929687
82387816,Bertie Albrecht - Hoche,48.87614039826388,2.301303138307601
213685090,Cevennes - Bergers,48.84240765130395,2.281037718057633
301841024,Molière - République,48.81111581390707,2.3145738624448158
213679512,Sibelle - Alésia,48.826701758539215,2.3384983465075493
85147829,Hôtel de Ville de Boulogne Billancourt,48.83495885166784,2.2416803240776066
588452142,Hoche - Jean Lolive,48.89110239200789,2.402843534946442
129038848,Enghien - Faubourg Poissonnière,48.872420063053,2.3483952362828
17581042048,Place de la Porte de Champeret,48.886062068226,2.2917001576821
230952057,Place Marcel Cachin,48.81411442356866,2.39090770483017
98187918,Lobau - Hôtel de Ville,48.8562118,2.3532536
66491389,Place de la Reine Astrid,48.864920982538,2.3025491823859
213681356,David Weill - Parc Montsouris,48.821092374256104,2.333725690841675
2515351285,Saint Lambert - Blomet,48.83659148147257,2.2930556908249855
213685514,Place Robert Guillemard,48.836191728066666,2.2811267160086417
102329800,Marcelin Berthelot,48.8415473058801,2.233161628246308
572566600,Edouard Tremblay - Julian Grimaux,48.781383825117,2.3723508417606
54000625,Repos - Cimetière du Père Lachaise,48.859358523593,2.3896131366845
13356269,Assas - Rennes,48.8492084999386,2.32851454623001
129132870,Nationale - Place Jules Guesde,48.82753962462998,2.2416052222251897
620403530,Gabriel Péri - Danielle Casanova,48.790114,2.4025777
66491378,Lakanal - Commerce,48.84442462786544,2.294059172272682
41610121,Censier - Jardin des Plantes,48.84107178161383,2.355475388467312
1765749389,Karl Marx,48.784527937293184,2.3646667979455587
611152693,Tertres - Fontaine,48.787553654715644,2.306235730648041
235241110,Gare Rer de Fontenay sous Bois,48.8436279,2.4630465
613737748,Raspail - Manufacture des Oeillets,48.8094458,2.3903009
1062671597,Cossonnerie - Sébastopol,48.86132665908402,2.349419631063938
463297497,Marcelle - Thalie,48.8835462,2.4137883
128841079,Cambon - Rivoli,48.866143390992,2.3251800647137
213875650,Henri Ste-Claire Déville - Paul Héroult,48.892663,2.172411
245187072,Louis Lumière - Porte de Bagnolet,48.86431136000005,2.4105210229754443
129144878,Paris - Emile Zola,48.854898095789295,2.4186685681343083
27415665,Jean Jaurès - Salvador Allende,48.821475594736775,2.3026576638221745
593238093,Victoire - Chaussée d'Antin,48.875065791004396,2.3316738009452824
41498023,Oberkampf - République,48.86531608707,2.37611478491
19495456684,Commandant Schloesing - Pétrarque,48.861773096259,2.2838841134601
37791,Richard Lenoir - Jean-Pierre Timbaud,48.865804276686,2.3693370749669
50156117,Legendre - Dulong,48.885325169402904,2.316423766314984
210744286,Chemin Vert - Saint-Maur,48.86112461407359,2.381299026310444
213992316,Square du Théâtre du Garde-Chasse,48.881287375060616,2.420119643211365
213694482,Botzaris - Parc des Buttes Chaumont,48.877951,2.381464
235599121,Général De Gaulle - Alouette,48.839109,2.4175664
462875227,Jules Guesde - Alsace,48.890566275506,2.2950777411461
101743895,Joseph Liouville - Croix Nivert,48.844835471244416,2.297508493065834
213691848,Place Madeleine Daniélou,48.883498,2.282015
129011497,Rochechouart lamartine,48.876719895109,2.344393021854
54000601,Jean-François Lépine - Stephenson,48.88611466796807,2.356855627529275
97677210,Parmentier - République,48.8644954,2.3750124
213688462,Sablons - Georges Mandel,48.863875,2.28189
1057774603,Marie-Georges Picquart - Pereire,48.88863669349711,2.3111706599593163
102749572,Gare RER de Vincennes,48.847563015126106,2.433383166790009
390212609,Théophile Gautier - François Millet,48.85034821320644,2.273029983043671
549876068,Villette - Belleville,48.8726877314,2.376461327076
63498079,Marché Secrétan,48.88125496379482,2.373463287949562
102338493,Larmeroux - Baudelaire,48.816939911292,2.2809894804846
15462236,Galilée - Kléber,48.867411865714,2.2907813801148
27362896,Beffroy,48.886591074488,2.2613945603371
39254792,Mairie du 11ème,48.858925,2.3789759
101024234,Quai Panhard et Levassor,48.828374828097,2.3842737458056
213687140,Molitor - Chardon-Lagache,48.845208801832,2.2656840831041
102331767,Victor Hugo - Galliéni,48.838020154411,2.2460845112801
875078767,Lieutenant Chauré - Etienne Marey,48.86746195408435,2.405970990657807
1558958733,Arche - Léonard de Vinci,48.89790972494496,2.2383723043644914
2515802454,Charles de Gaulle - Sablonville,48.87991924860035,2.2763770446181297
648227675,Auguste Cain - Jean Moulin,48.82577028927573,2.3210415244102482
1062206433,Chemin Vert - Fraternité,48.877141208359035,2.4461565166711807
129032910,Marseille - Beaurepaire,48.871624306962985,2.3639265082738348
54001024,Parmentier - Abel Rabaud,48.86921273836114,2.371688821240712
94250567,Mairie d'Ivry-sur-Seine,48.81057120969284,2.3842826485633855
129078200,Parc Georges Brassens - Brancion,48.83227829269761,2.3022570088505745
649888071,Place Paul Eluard,48.7672039733195,2.4144977331161503
82563707,Exelmans - Michel-Ange,48.84309486651855,2.2597770800669053
129143598,Pierret - Madrid,48.882976576876565,2.260125767248034
213690847,Reims - Raymond Pitet,48.8888,2.296319
102333275,Saint-Vincent - Verdun,48.819211549234495,2.254007756710053
640629438,Aristide Briand - Gare de Bagneux,48.79387269664978,2.321148812770844
27363362,Seine - Flandre,48.886785741479684,2.3746193200349808
237624030,Mathurins - Auber,48.872988840744,2.3294984212276
6399,Hautpoul - Jean Jaurès,48.886393679436,2.3865414544355
213957917,Wilson - Métallurgie,48.909423010092326,2.3584435880184174
54000626,Madame de Sanzillon - Mozart,48.90379820774301,2.3187401890754704
210746090,Grand Prieuré - Crussol,48.864660627935,2.3692265531829
18880379814,Leroy des Barres - Médiathèque,48.928253687082,2.3681719727966
27414841,Square d'Anvers,48.882633484311,2.3448844062122
53999465,Place du Palais Royal,48.862382970647,2.3384822532535
42566291,Miromesnil - La Boétie,48.873722412917,2.3158480972052
82253759,Mairie du 7ème,48.8577967,2.3192664
54000577,Arago - Glacière,48.83486054775774,2.3445770524322067
19495480499,Prague - Théophile Roussel,48.850330563516,2.3758223011125
213702608,Boyer - Ménilmontant,48.868895162679,2.3919824145635
54000609,Laumière - Petit,48.88467368538326,2.380039058625698
1057387136,8 Mai 1945 - 10 Juillet 1940,48.784567029674,2.3979035764933
214134714,Gare Arcueil - Cachan,48.799824,2.328171
214139374,Gare RER de Gentilly,48.814280450380224,2.3410347104072575
17174681330,Quai du docteur Dervaux,48.910482,2.297998
213700358,Villiers de l'Isle Adam - Pyrénées,48.867362,2.396222
66491405,Charonne - Avron,48.851602665222,2.3984030470379
559507144,Place Jean Ferrat,48.8184945213025,2.3744174838066106
653063170,Place de la Porte de Paris,48.93009363207303,2.3564037680625916
3906215030,Place Amédée Gordini - Lefebvre,48.83061737745,2.2920634208276
129151834,Stalingrad - Désiré Chevalier,48.85670169739857,2.445072233676911
213694069,Flandre - Alphonse Karr,48.89465,2.381868
55664548,Charonne - Faubourg Saint-Antoine,48.852191909696,2.3740932717919
4329844165,Tristan Tzara -  Tchaïkovski,48.89490221746837,2.3648490384221077
653200142,Hôtel de Ville de Nanterre,48.892371898250424,2.205548956990242
650091839,Victor Hugo - Ecoles,48.80476007936134,2.4180373930262093
18660653445,Général Delambre - Prebuard,48.93870344444,2.2234171606307
42743053,Stephenson - Doudeauville,48.888537048944826,2.3561610281467438
49859500,Charenton - Diderot,48.846171461187,2.3793068155646
213699913,Place de l'Édit de Nantes,48.88879,2.3785
101740379,Boulard - Daguerre,48.83446472680611,2.3293386027216907
19006016846,Simon Bolivar - Henri Turot,48.877475489801,2.3739709492211
647826568,Saint-Germain - Thenard,48.850571,2.3471015
49368561,Jules Ferry - Faubourg du Temple Paris,48.868397,2.3678933
362869414,Hôpital Bégin,48.84571672113,2.4272462725639
468843711,Saint Georges - d'Aumale,48.87778639599673,2.337429821491241
378626842,Anatole France - Louise Michel,48.88873214926474,2.2881576418876652
27414945,Montgallet - Charenton,48.842647778701,2.3861649278137
2515927759,Stalingrad - Germaine Tailleferre,48.80257200481316,2.3786691203713417
205955605,Bienfaisance - Place de Narvik,48.87660163459077,2.3129771277308464
933214552,Guynemer - Séverine,48.83091743371036,2.2790706530213356
39217683,Alfred Roll - Berthier,48.887808570529,2.3000952981763
353462947,Richard Wallace - Place du 8 Mai 1945,48.87866794788021,2.2420343756675725
1559700274,Square Gilbert Thomain,48.90717373809284,2.2695400938391685
213688824,Faustin Hélie - Desbordes-Valmore,48.859403,2.276522
210090269,Jean Macé - Faidherbe,48.85337548426,2.3828620836139
66491393,Dupleix - du Guesclin,48.85147910413369,2.296709530055523
1062223873,Ancien Canal - Hélène Brion,48.89484799296163,2.4188338592648506
49085250,Departement - Pajol,48.886674849730184,2.3613611608743668
66491404,Flandre - Riquet,48.888013281448,2.3737595955229
66491392,Parmentier - Hôpital Saint-Louis,48.871379874257,2.3698963836667
2515907297,Pasteur - Gambetta,48.84572797384512,2.4236011505126953
66491401,Fragonard - Porte de Clichy,48.894155633419,2.3143893107772
341388492,Place des Ternes.,48.878438631226516,2.297727763652802
985828965,Place de Verdun,48.8202823,2.473775
338762459,Edouard Poisson - Victor Hugo,48.91118557052621,2.379864752692811
323486248,Montgallet - Reuilly,48.844291,2.3896481
38263504,Place Jacques Madaule,48.823933787309,2.2606918215752
501318622,Montreuil - Gonnet,48.850500564921,2.3890856287864
82337423,Varenne,48.857202661803,2.3152771219611
376664868,Gaston Roussel - Commune de Paris,48.894320345532,2.4325522744195
54000544,Jussieu - Fossés Saint-Bernard,48.847185510023,2.3534858599305
66491370,Jacques Callot - Mazarine,48.855280175332,2.3375743255019
27071684,Porte de Vincennes,48.846454,2.415514
49403716,Commandant Rivière,48.872933,2.309796
470807791,Jardin d'Acclimatation,48.878772242510465,2.270772233605385
568135465,Paul Vaillant Couturier - Chaptal,48.893479576183,2.2775253653526
82450803,Square Cambronne,48.84756654526,2.3025691509247
214102967,Gare de Laplace,48.80893199114179,2.3349460959434514
54000597,Bayen - Pereire,48.881804409079656,2.2921088710427284
2515658032,Clignancourt - Sofia,48.88511992309783,2.34719488842051
652192395,Route de Sèvres - Porte de Bagatelle,48.87525984132485,2.249415814876557
571923059,Bordier - Félix Faure,48.90390751882016,2.3830059170722966
54000635,Félix Faure - Sadi Carnot,48.90812110228388,2.378623187541962
35908,Cujas - Saint-Michel,48.848191348584,2.341831654854
1062179194,18 juin 1940 - Buzenval,48.868807,2.185428
1063017616,Mairie de La Garenne Colombes,48.90663823468682,2.24679596722126
378648513,Jean Colly - Tolbiac,48.827817291597846,2.3705490678548813
27278603,Porte de la Villette,48.89835196548483,2.386150136590004
13497763,Ouest - Château ,48.83617286014242,2.319392143923804
653042442,Place aux Étoiles,48.91835629408464,2.3523425683379173
49807107,Flandrin - Henri Martin,48.8643275,2.2724174
210747224,Pirogues de Bercy - Libourne,48.832308,2.38637
357409723,Place Violet,48.84487893836502,2.2905756533145905
17992442278,Place du 8 Mai 1945,48.871552174017,2.2025031970585
52393,Grands Moulins de Pantin,48.89738369720229,2.3959985375404362
570185777,Gare de Courbevoie,48.8993867,2.2506506
473204291,Victor Hugo - Magasins Généraux,48.903281401126755,2.368072383105755
27363103,Porte d'Auteuil,48.8479394142243,2.2608396783471107
631773910,Carnot - Pâquerettes,48.79592939432515,2.4261841177940373
210568512,Assemblée Nationale,48.861411014652,2.3201214185208
85145704,Réunion - Avron,48.852566752033766,2.403928068708116
6385,Petit - Manin,48.886506875343,2.3938155401308
85165045,Place Jean-Baptiste Clément,48.81240466867336,2.3617091774940495
475524450,Chanzy - Sud-Est,48.888912037698766,2.195632159709931
653048150,Jussieu - Guy de la Brosse,48.845665,2.355653
244400797,Jean Lolive - Parc Stalingrad,48.89206174403158,2.4091735482215886
129001431,Courcelles - Place des Ternes,48.878199928923124,2.2992860188665043
653203262,Parc Pierre Lagravère,48.92650488131725,2.239069678491417
406806401,Guichet - Jean Jaurès,48.905169868129036,2.3023840785026555
1063035479,Parvis Robert Schuman - Roger Salengro,48.812657470558754,2.1921751275658607
54000595,Navier - Epinettes,48.89587780769155,2.3226776719093327
82571110,Verdun - Place Henri IV,48.870797375639214,2.2277003154158592
217235307,Place Carnot,48.85593932186797,2.441531717777252
82421994,Gare de Bercy,48.839794573906,2.3826066032052
129086648,Ceinture du Lac Inferieure - Saint-Cloud,48.86218070933143,2.2617871686816216
217572769,Anatole France - Jean Lolive,48.8949922,2.4253764
214298601,Boyer-Barret - Raymond Losserand,48.83329880233322,2.3173383995890617
129125489,Piat - Parc de Belleville,48.87195626635528,2.384981390278095
26958435,Square des Saint-Simoniens,48.8701796,2.3967273
213922790,Champeaux - Gallieni,48.864459134684644,2.4161778017878532
37936869,Assas - Vaugirard,48.848274111398,2.3292413726449
19016722230,Raymond Poincaré - Allée de la Marche,48.838634069623,2.1724102640451
210748575,Gravelle - Route du Bac,48.824407,2.418455
129119449,Ménilmontant - Pelleport,48.870682633845,2.3989596023316
214122655,Lagny - Joffre,48.84930687084088,2.417949736118317
82458977,Place Falguière,48.83629973941847,2.3104464635252953
129077035,Emeriau - Place de Brazzaville,48.850785261674964,2.2871585190296173
15461933,Parc Monceau,48.881077914129,2.3095492646098
216473073,Tardieu - Chappe,48.884146759782,2.341845408082
37521,Petites Ecuries - Faubourg Poissonnière,48.87397217237368,2.348388757504776
985086307,Gare d'Asnières sur Seine,48.90636459217474,2.2835066914558415
2515976231,Nanterre - Université,48.901365,2.212693
129103849,Francoeur - Marcadet,48.89104123261663,2.340014585442034
1057009034,Henri Chevreau - Couronnes,48.87033205312931,2.388777695596218
82334007,Pascal - Claude Bernard,48.839061952159746,2.3499782010912895
214146056,Vignerons - Minimes,48.841486,2.430793
15308782,Sommerard - Saint-Jacques,48.850310432924466,2.345015835298588
85008390,Grenelle - Dr Finlay,48.851315406715976,2.2919502854347233
216039437,Lamennais - Washington ,48.87352990026496,2.303444892168045
43155320,Porte d'Orléans,48.8227639,2.3249313
221047138,Pierre et Marie Curie - Julien Grimau,48.870714014863225,2.424097023904324
210567545,Raspail - Varenne,48.853147816545,2.3263905197382
129130397,Pierre Grenier - Pont de Billancourt,48.8258020742942,2.2487989068031315
653129412,Vladimir Ilitch Lénine - Andrée Chedid,48.813240124373,2.3319716067039
419381597,Professeur René Leriche - Général Leclerc ,48.90782845483013,2.307887971401215
54000466,Uzès - Montmartre,48.870790980240706,2.3431010171771054
426772876,Ledru-Rollin - Charonne,48.85345855607243,2.3772463581947094
653046029,Place Valhubert,48.844182577315,2.3640366643667
54000548,Quai Voltaire,48.858942986179,2.3314182047146
27414601,Saint-François-Xavier,48.85154484769,2.3146149516106
215495494,Batignolles - Place de Clichy,48.883474535757,2.326493114233
74620630,Parc de Belleville - Julien Lacroix,48.8703459,2.3842214
129091653,Gare de Pont-Cardinet,48.88713901475306,2.314494143994255
129036192,Gare de l'Est - Verdun,48.876156054271,2.3609149083206
11004671601,Capitaine Glarner - Gabriel Péri,48.902449900418745,2.3304807533425724
210754072,Place Jean Delay,48.823316,2.354336
419991048,Pont de Levallois-bécon ,48.8984179,2.2791311
2820744873,Pierre Larousse - Raymond Losserand,48.83059564231877,2.3119183257222176
213676825,Pitié-Salpêtrière,48.83748810318667,2.365213818848133
15299574,Charles Delescluze,48.85242200848887,2.380632497370243
41566122,Vasco de Gama,48.83671783466264,2.283664085650799
963786819,Jonquoy - Didot,48.82890454823947,2.31648076325655
427678168,Lucien Sampaix - Récollets,48.874330377560476,2.3621229082345963
976762284,Place du Général de Gaulle,48.8525288,2.4877332
82421013,Charenton - Place du Col Bourgoin,48.844867319554,2.3825789350545
434419150,Bara - Henri Farman,48.833218027457846,2.2677567601203923
220502135,Porte Dorée,48.8354337,2.4077132
129114993,Belleville - Porte des Lilas,48.87660391892763,2.404769691129476
220726050,Mézières - Rennes ,48.85023459321703,2.3303819820284843
254224239,Place Adolphe Cherioux - Vaugirard,48.83959442800459,2.3010657727718353
1805401614,Sèvres-Gallieni,48.837809408957,2.2281519323587
85118872,Indre - Prairies,48.86254398506782,2.403290458023548
100859941,Raspail - Bac,48.855628721101,2.3256602883339
224589573,Michelet - Assas,48.842741502832,2.3350211977959
252339799,Edouard Vaillant - Paul-Adolphe Souriau,48.834845858829,2.2479459643364
129134084,Morice - Général Leclerc,48.90245471981591,2.3128929734230046
129116697,Tanger - Place du Maroc,48.8862524447104,2.3689296841621403
977409509,Vincennes - Douy-Delcupe,48.85493692155721,2.436049282550812
653055049,Place du Cornillon - Stade de France,48.92540695835961,2.3644426837563515
221041655,Porte de Clignancourt.,48.897488,2.343996
1057769632,Porte de Saint-Ouen - Henri Huchard,48.898708366365064,2.3295360803604126
1333959209,Génie - Mozart,48.794902381218904,2.3734183609485626
213690256,Place du Maréchal Juin - Péreire,48.885263,2.298286
632007124,Lucie Aubrac - Franklin,48.86223916006812,2.4435862898826604
977206088,Hôtel de Ville d'Argenteuil,48.946504,2.2496396
213868408,Gare Routière de Saint Cloud,48.84288183896324,2.222245037555695
129061615,Primo Levi - Frigos,48.83094844846017,2.37965351592796
224598098,Dunois - Clisson,48.832294,2.3674523
82381710,Batignolles - Rome,48.881823370566806,2.3202589899301524
120564786,Filles Saint-Thomas - Place de la Bourse,48.868899890853,2.3397543845203
82508970,Verdun - Adrien Damalix,48.8222334178559,2.4215328320860863
653055097,Milton - Manuel,48.878249,2.341181
27246227,Edouard Pailleron - Simon Bolivar ,48.87979886049996,2.374839261174202
63297,Eglise d'Auteuil,48.84749841771691,2.26848387135299
95927849,Jean Jaurès - Jean Baptiste Clément ,48.84576261454011,2.2369650006294255
102341385,Château - Bineau,48.890404028589806,2.270106375217438
54000605,Mairie du 18ème,48.892939296937605,2.3445510864257812
979059925,Bridaine - Lamandé,48.8862074,2.3206239
6512,Porte de Ménilmontant,48.8691543609174,2.40932246879487
27363323,Laffitte - Italiens,48.871815737396,2.3372015478451
10968855,Colonel Monteil - Brune,48.82650293311,2.3092747998272
221038698,Mahatma Gandhi,48.876356,2.264205
129145892,Paris - Désiré Préaux,48.85742876694898,2.4323049187660217
102289046,Lourmel - Marie Skobtsov,48.844974,2.287283
124402232,Belleville - Télégraphe,48.8756045,2.3995549
27415327,Courcelles - Pierre Demours,48.883769733273496,2.29858466343129
100798076,Danton - Serpente,48.852297362582,2.3414132371545
1063404053,République - Danton,48.85249172181667,2.462034523487091
54000598,Mac-Mahon - Brey,48.877532084130166,2.294512536052928
989753852,Square des Epinettes,48.89383909781389,2.325953990221024
82577019,Cité des Sciences et de l'Industrie,48.89659571178903,2.384599149227142
39256416,Pajol - Riquet ,48.88960028134536,2.3628534749150276
255207155,Lassus - Delouvain,48.8755044846,2.3890327325519
63769334,Emile Blemont - Poteau,48.8943782,2.3415122
129136818,Square du Carrefour de l'Insurrection,48.820864559770676,2.291113436222077
653080986,Toffier Decaux - Cartier Bresson,48.90165072551549,2.4017545580863957
27415469,Orteaux - Mouraud,48.85558642847872,2.408762907764669
39599631,François Ponsard - La Muette ,48.8583666,2.2744515
84979504,Provence - Chaussée d'Antin,48.87428447542072,2.332976511564311
11218807773,Hôtel de Ville de Saint-Ouen,48.911380185786,2.3340076807601
653059015,Bellefond - Maubeuge,48.878255397645,2.3452642187476
85120104,Pelleport - Belgrand,48.86500081847653,2.403980836377493
205047993,Edgar Quinet - Raspail,48.83940266673835,2.32971478253603
101748685,Place Etienne Pernet,48.84243457133779,2.2921819612383847
54000608,Porte d'Aubervilliers,48.89859661942376,2.3689722642302513
121025345,Chabrol - d'Hauteville,48.877018388033,2.3513179644942
213692714,Lepic - Armée d'Orient,48.887536403814,2.3343077301979
66491394,Square Saint-Ambroise,48.860934,2.375841
102743096,Sadi Carnot - François Mitterrand ,48.87532687671517,2.4241617321968083
126175087,Gabrielle Josserand - Edouard Vaillant,48.90271566255436,2.3933270573616032
101746493,Théâtre - Lourmel,48.8482070397636,2.2898658737540245
27363137,Hameau Fleuri - Marché,48.831448892608314,2.2412404417991643
653050378,Square René Viviani - Montebello,48.851904891406,2.3478421568871
82404497,Ledru-Rollin - Place du Père Chaillet,48.856433706943704,2.379020587761426
1968156458,Ecole Vétérinaire,48.81488859822486,2.4224362157778994
991351798,Aubervilliers - Curial,48.89088305227546,2.3688579350709915
7304,Bassano -  Iéna,48.868144510482075,2.296149600985935
54000592,Balard - Montagne de la Fage,48.83850740333351,2.2782871127128606
1002738770,Lavandieres Sainte Opportune - Rivoli,48.859279702476,2.3466217517853
15409531,Méchain - Faubourg Saint-Jacques,48.83586772099485,2.33798034198275
29327,Stade Auguste Delaune,48.80896378683884,2.4345204234123234
36298,Jean-Baptiste Pigalle - La Bruyere,48.87939826447722,2.333709173337285
37903195,Transvaal - Charles de Gaulle ,48.848280403628806,2.2373420120857195
102313219,Belliard - Damrémont,48.89669238777841,2.338023450388167
100906707,Boulets - Faubourg Saint-Antoine,48.849259262115,2.3917546141943
624177860,Route de la Muette - Porte de Neuilly,48.8798926,2.2587671
27369223,Maine - Antoine Bourdelle,48.84308531746595,2.320263946784738
102336814,Kléber - Gouverneur Général Eboué,48.826885843069796,2.2723413258790965
484423835,Président Wilson - Jean Jaures,48.89034054052266,2.2920683026313786
54000618,Pyrénées - Maraîchers,48.85714001395299,2.4043509364128113
653059879,Gare RER de Saint-Denis,48.93554324248177,2.3471488058567047
210583589,Place Jacques Bonsergent,48.870948218595,2.3612049221992
15291968,Place de Passy,48.85780291711202,2.277500546942199
15387809,Mozart - Jasmin,48.85286124871689,2.268483570651513
66491407,Haies - Réunion,48.85386896766491,2.402426162238911
27415466,Jourdain - Place des Grandes Rigoles,48.874031137272,2.3895947635174
221094844,Place Alphonse Deville,48.850188262662,2.3275961726904
15397468,Maison de Radio - France,48.85132886434057,2.277785539627075
84966359,Naples - Rome,48.879960700846226,2.321358695626259
42908639,Lallier - Trudaine ,48.88109246617963,2.3408224806189537
125469898,Square Léon,48.88667396788626,2.353205569088459
54000549,Villersexel - Saint-Germain,48.858297001218,2.3237934708595
52329,Chernoviz - Raynouard,48.8569864146289,2.282173218142987
85162552,Fontainebleau - Edmond Michelet,48.80956436844049,2.3626908659935
54000586,Pernety - Raymond Losserand,48.834254627953,2.317609339387
2515738489,Eugène Reisz - Davout,48.85631874632638,2.410396970808506
256561528,Eugène Oudiné - Dessous Des Berges,48.8256423,2.3750226
452920451,Mont Valérien - Michel Salles,48.8561915,2.2152966
54000588,Gare Montparnasse - Vaugirard,48.8418071798797,2.31951002690117
1020700136,Neuve Saint-Pierre - Beautreillis,48.85355351439652,2.3639122769236565
100855693,Sabot - Rennes,48.852575112948415,2.331552766263485
102304517,Pereire - Place de Wagram,48.887070607581215,2.304111124531457
128889359,Champ de Mars - Cler,48.856691550115315,2.306646779179573
210737808,Aqueduc - Villette,48.883886063895,2.367198803315
17526921983,Mairie de Sceaux,48.778916905132,2.2887361764861
54000546,Sénat - Condé,48.84954227788459,2.337939441204071
35137730,Hôpital Pitié Salpêtrière,48.8377016,2.3604946
912377361,Diderot - Reuilly,48.847208456061,2.3861273378134
259977414,Palais des Sports,48.833468517426,2.2858720645308
36473,Cadet - La Fayette,48.875601632672,2.3435704037547
129101773,Caulaincourt - Place Constantin Pecqueur,48.889677905028,2.3381787144261
256124192,Belleville - Pyrénées,48.8741908,2.3860039
100918666,Place Pasdeloup,48.862654215631,2.3670325062844
1002059045,Pont Neuf - Rivoli,48.860089892617,2.344057559967
17527110170,Stade Gaston Bouillant,48.939958667023,2.3279571813836
284787594,Place d'Italie - Vincent Auriol,48.831481874467,2.3567550292319
82568336,Jeanne Hornet - Girardot,48.873802681432146,2.427820265293122
66491408,Calmette,48.88104925098552,2.424993216991425
18175885970,Porte Maillot - Perreire,48.878021154637,2.2842371277102
213848056,Parvis Corentin Celton,48.82747252522725,2.2784319519996648
54000545,Parc André Citroën,48.840639944296655,2.2780618071556096
17527065847,Chateau,48.774661399959,2.3135878035462
54000541,Vieille du Temple - Francs Bourgeois,48.858256413365815,2.35821794718504
1025995767,Hôtel de Ville de Champigny sur Marne,48.813810628405,2.5096759200096
1034242363,Place François Mitterand,48.86492782016328,2.442958317697048
1021553839,Faubourg Poissonniere - Delta,48.882555807626765,2.3497482016682625
1021176825,Billancourt - Général Leclerc ,48.8322649,2.2380413
653065577,Gare du Nord - Demarquay,48.881154,2.358411
335780498,Greneta - Sebastopol,48.865242333228,2.3516669869423
54000611,Manin - Simon Bolivar,48.876499654127,2.3794073625991
484387018,Place du Maquis du Vercors,48.877321579493575,2.4083782732486725
1035816937,Poissonniers - Nord,48.892511213520656,2.3522228747606277
544249939,Raspail - Chomel,48.852233164303,2.3266580700874
224256188,Beaujon - Wagram,48.875352455985,2.2964416444302
66507229,Reims - Porte d'Asnières,48.891834448210986,2.300144659954865
1023083417,Station Paris Basketball - Ney - Charles Hermite,48.898748039775,2.3645754531026
82432573,Porte d'Ivry,48.821768747596,2.3688706755638
66491386,Surcouf - Université,48.861273016278,2.3094535509142
54000539,Hôtel de Ville - Pont-Marie,48.853899645527,2.3569472506642
452936197,Bois de Vincennes.,48.8338064,2.4132221
27415012,Bercy.,48.839966914994,2.3788625746965
101490103,Saint-Jacques - Tombe Issoire,48.833206330538864,2.3369108140468597
100872260,Duroc - Place de Breteuil,48.847460641142,2.3126140236855
653127524,Gustave Eiffel - Parc des Impressionnistes,48.90390619651018,2.2946908324956894
263610599,Centenaire - Sorins,48.85853523359734,2.4273508787155156
653066427,Franciade - Gabriel Péri,48.93261499331498,2.355954498052597
129089749,Brochant - Square des Batignolles ,48.88818698581028,2.316861143151153
82587428,Dupont de l'Eure - Gambetta,48.8679385,2.4003649
27415297,Square Raymond Souplex,48.89183721478911,2.335426103165901
54000607,Convention - Saint-Charles,48.843156111116,2.2831090539694
13283986,Keller - La Roquette,48.8555508,2.3752778
100910836,Parmentier - Fontaine au Roi,48.86787670551736,2.372705978671471
6515,Rougemont - Poissonnière,48.871611569354755,2.345873080193996
41523981,Mairie du 15ème,48.8417762,2.2986539
1034247348,Place des Larris,48.8568363,2.4780236
39536951,Vistule - Choisy,48.82365543660611,2.3615723848342896
35089539,Manin - Crimée,48.8831217743719,2.3863670602440834
27415169,Nationale - Marcel Duchamp,48.82463749337136,2.3678014799952507
15412563,Square Desnouettes,48.83476837934194,2.284142297394666
30179848,Saint-Blaise - Mouraud,48.85696177597818,2.40869477391243
27363029,Charonne - Philippe-Auguste,48.855603162026,2.39054639062
484889494,Hôtel de Ville de Levallois Perret,48.89314451997415,2.2888818383216862
100902274,Roquépine - Malesherbes,48.87345073390807,2.320404499769211
78348185,Mairie de Clichy,48.903653634661,2.3059353232384
36003,Pont de Lodi - Dauphine,48.855296898603285,2.339947307565249
27415215,Romain Rolland,48.820215229662765,2.3234144234418346
263732151,Gambetta - Michelet,48.85273792380526,2.429966032505036
1036199130,Les Juilliottes,48.8043072,2.4437362
129161858,République - Henri Barbusse,48.90661553626751,2.389432489871979
653035822,Jeûneurs - Mulhouse,48.868997,2.346925
27415285,Place de Finlande,48.862408335967,2.3113624379039
100770878,Poissy - Saint-Germain,48.84969649427,2.3529685288668
27363256,Thérèse - Opéra,48.866483514509,2.3344334212238
213691137,Carnot - Général Lanrezac,48.875443870736,2.2938242935036
75313725,Ferrus - Saint-Jacques,48.8313878,2.3408563
653069115,Claude Vellefaux - Sambre et Meuse,48.875022,2.370478
82419429,Faidherbe - Dahomey,48.851358329771806,2.383823134795429
349750111,Bleue - Trévise,48.87578906564573,2.347289621829987
52453,Le Vau - Maurice Bertaux,48.86803439043193,2.411030612453627
210389577,Daunou - Louis le Grand,48.869113,2.332515
1055553396,Mornay - Sully,48.84970399548416,2.364460788667202
210394523,Porte Saint-Martin,48.86860172112996,2.35570102930069
66505513,François 1er - Lincoln,48.869517979344,2.3024262188416
66491371,Pierre Sarrazin - Saint-Michel,48.850908146398,2.342130728066
1056959071,Place Mireille Havet,48.850533,2.383756
486833337,Bachaumont - Montmartre,48.86617395079137,2.3449775576591496
60667075,Georges V - François 1er,48.87034,2.30082
606669250,Square Georges Melies,48.84070239213081,2.409667745232582
17638171254,Charles de Gaulle - Louis Philippe,48.881742142181,2.2710045335353
54001190,Mairie du 19ème,48.88256264247959,2.3812624812126164
82569809,Jardin Marguerite Long,48.8816985773914,2.2836575657129288
266052390,Melun - Jean Jaurès,48.8837796723475,2.376477420330048
37952191,Jean Jaurès - Reine,48.84009622558849,2.239872515201569
34300292,Argenson - Château,48.888559314669514,2.2642001509666447
82554786,Place de l'Eglise - Pantin,48.892809461520265,2.4124351143836975
268976295,Butte aux Cailles - Esperance,48.82758774190948,2.3492151126265526
27415444,Louis Ganne - Davout,48.86338720692607,2.409725748002529
76488849,Fernand Braudel - Vincent Auriol ,48.83637852318147,2.3723404482007027
460558111,Square du Bataclan,48.8633762,2.3711327
66491368,Sorbonne - Ecoles,48.849686566191,2.3434996604919
15401095,Versailles - Claude Terrasse,48.840219338074,2.263834191153
1055541632,Place Tony de Graaff,48.8181645,2.2458109
54000561,Lamartine - Faubourg Montmartre,48.876613982891,2.3397656902671
15383032,Place du Canada,48.865346269363,2.3101937879648
84983562,Roquette - Folie Regnault,48.859246959155485,2.386553623578705
129081441,Vignes - Boulainvilliers,48.856399483950504,2.275240458548069
1056986761,Terroirs de France - Lheureux,48.83212027074841,2.388618104159832
82566934,Brochant - Clichy,48.89032998912038,2.319730559929781
82590367,Place Marcel Sembat,48.83328865030686,2.2441747784614567
43219958,Odessa - Départ,48.842885590081,2.3244281485677
35106544,René Coty - Parc Montsouris,48.82479134498032,2.336124926805496
267976590,François Truffaut - Saint Emilion,48.83372354344807,2.386601903271428
1056965116,Lac Daumesnil - Saint-Maurice,48.82774555743318,2.4183654785156246
54000630,Madeleine Michelis - Roule,48.88260431301364,2.2773634269833565
1599921040,Jessaint - Marx Dormoy,48.88484543106364,2.358930408954621
82573931,René Binet - Porte de Montmartre,48.89905109950848,2.3365534096956253
82436057,Moulin de la Pointe,48.82092946051445,2.3563179373741145
11851037297,Sèvres Rive Gauche,48.821443218278,2.2150785306885
82448637,Suffren - Pérignon,48.84717561492764,2.307052147596786
271540743,Gare de Clichy-Levallois ,48.89679827481989,2.2984680533409123
11851327865,Docteur Calmette - Martre,48.898969358483,2.3086513252383
13372702,Saint-Fargeau - Mortier,48.87266656122256,2.407912909984589
1599931563,République - Auguste Perret,48.78695280952244,2.3518594354391094
15411223,Dareau - Broussais,48.8307758,2.3361804
85152599,Le Corbusier - Jean Jaurès,48.83780830557548,2.2408381104469304
478593396,Jean Moulin - Paul Doumer,48.8622179854695,2.45533436536789
213675430,Boutroux - Porte de Vitry,48.822632,2.377738
213693126,Véron - Lepic,48.88526123395252,2.334559857845307
363735875,Pont De Charenton,48.8179685,2.4199531
284711589,Beaumarchais - Pas de la Mule,48.855580507049,2.3684333673431
265266148,Pierre Brossolette - Adolphe Pinard,48.821772279548,2.3131558299065
269953055,Quai Marcel Boyer - Victor Hugo,48.822556366667,2.3920395970345
66491406,Cours de Vincennes - Davout,48.847238029966,2.4107042336225
30550,Mairie du 9ème,48.873267137583,2.3407534480528
357491025,Place Centrale,48.78740167690531,2.2278830409049992
457713145,Gare de Nanterre Ville,48.8950295,2.1957932
392576677,Senard - Charles Blum,48.857315824799,2.221091687679291
52456,Pré Saint-Gervais - Lilas,48.877870626988,2.3959073424339
1056995858,Gergovie - Vercingétorix,48.83453413883994,2.313154547426182
27414924,Sambre et Meuse - Villette,48.874405666217,2.3738072379951
213695073,Hôpital Robert Debré,48.88005222200894,2.4008650346327003
653217067,Jules Guesde - Laennec,48.87628983900398,2.5006942078471184
1109534105,Demi-Lune - Aristide Briand,48.87626381919953,2.4562818557024
365181481,Guy Môquet - Saint-Ouen,48.892777719023975,2.3270335793495183
653076373,Bois de Vincennes - Porte Jaune,48.838751246689455,2.4605489149689674
275968458,Place du Président Salvador Allende,48.897307310356055,2.40079153681279
213936755,Edouard Vaillant - Galliéni,48.858462881661,2.4147954583168
128928526,Clapeyron - Moscou,48.88078819514121,2.324815057218075
287096529,Paul Klee - Place Augusta Holmes,48.838946417408025,2.3704235663952966
13242682,Alexander Fleming - Belvédère,48.88179064200294,2.4030599377642674
128884445,Constantine - Université,48.860680473738,2.3148481955842
284708999,Santé - Arago,48.83507657562064,2.3415737262044938
653079520,Averroès - Aimé Césaire,48.91405323432864,2.412636950612068
653076393,Place du Front Populaire - George Sand,48.90680713698062,2.364541214992642
129069108,Paul Barruel - Vaugirard,48.84014918546239,2.3044332861900334
19161093714,Evariste Galois,48.873341356228,2.4133544409574
54000550,Rapp - Place du Général Gouraud,48.858102885107,2.3004072904587
124390478,Commandant l'Herminier - Gallieni,48.847040552603,2.4160453677177
1056979685,Bastille - Quai de la Rapée,48.84682410855,2.3669364675879
97705710,Jacquard - Ternaux,48.8646605,2.373162
1056972307,Pyramide - Parc Floral,48.837442,2.440452
1062812659,Auguste Blanqui - Glacière,48.831151602964,2.343822196126
15310509,Choron - Martyrs,48.877851443503,2.3396701365709
653062048,Gare du Nord - Place de Valenciennes,48.879089,2.354235
1057003116,Charles Lecocq - Lecourbe,48.84044,2.294867
285726279,Quai de Valmy,48.88126951579429,2.368186041712761
7261,Athènes - Clichy,48.878113787876,2.32956021945824
213685863,Parc Suzanne Lenglen,48.833250690537874,2.2765403240919113
390075668,Stade Georges Carpentier,48.820482438381,2.3668321967125
653079135,Mazagran - Pierre de Coubertin,48.816218640260445,2.344226874411106
38319086,Pierre Demours - Laugier,48.8813072,2.294846
221032834,Metz - Faubourg Saint-Denis,48.870893,2.353521
653129435,Neuilly - Petit,48.898965361341254,2.29627937078476
124622630,Pelée - Alphonse Baudin,48.8600265,2.3710541
129121741,Belleville - Couronnes,48.868831082877,2.3809862136841
362178041,Place Jules Ferry,48.812107928414775,2.325837314128876
100783424,Censier - Santeuil,48.840658921385234,2.3537524044513702
210584503,Gare de l'Est - Fidélité,48.874575,2.356796
422639331,Mairie de Neuilly sur Seine,48.88494728765838,2.2677031159400944
1057081237,Cimetière d'Issy-les-Moulineaux,48.817699773925,2.2609312087297
292871105,Botzaris - Crimée,48.87959698690176,2.3887913337477067
38280,Saint-Didier - Raymond Poincaré,48.86642312020962,2.285863497192411
653125838,Cours de l'Ile Seguin - Parc Billancourt,48.82714055843935,2.234234511852265
594942659,Gare du Nord - Denain,48.879595787608,2.3544725775719
457834134,André Maurois - Joseph et Marie Hackin,48.8778983,2.2789591
404947652,Place Fernand Forest,48.849269143836,2.281863167882
291354793,Gare de Lyon - Van Gogh,48.843839785643,2.3704450240357
213686471,Eylau - Trocadéro,48.863354122371,2.2864209115505
54000593,Longchamp - Place d'Iéna,48.864917233434,2.2926748171449
27362949,Louis Blanc - Jemmapes,48.879330755297,2.3684485629201
1057061349,Chancé Milly - Cimetière Communal Sud,48.89687189382465,2.303922325372696
129142199,Marcel Yol - Jullien,48.82537611802588,2.287235018058929
27363558,Wurtz - Tolbiac,48.82631195621,2.344585955143
214109662,Hôtel de ville de Fontenay-sous-Bois,48.84949749106274,2.4750164151191716
302725495,Gare SNCF Vanves-Malakoff,48.819002163836444,2.292150005103606
653122771,Marc Sangnier - Division Leclerc,48.78599652305309,2.329955510795116
35147530,Pierre Levée - Fontaine Timbaud,48.86632723374305,2.3711163550615306
101756482,Convention - Vaugirard,48.83767682233156,2.295586926020252
1057179405,Résistance - Hoche,48.864273423741956,2.435784414410591
653135400,Paul Vaillant-Couturier - Gare RER,48.80108159069614,2.402097210288048
213689228,Raffet - Montmorency,48.85258670812,2.2629252456151954
129079313,Commerce - Letellier,48.84797660373612,2.2966245196598805
409364001,Ivry - Simone Weil,48.823283932030755,2.3659095168113713
1057039016,Fessart - Château,48.84245,2.23989
1057045129,Cimetière de Boulogne-Billancourt,48.830764,2.252024
1190800638,Ranelagh - Maison de la Radio,48.85293603169479,2.280449643731117
303102719,Brancion - Lefebvre,48.82900222785569,2.301431038163409
27363277,Place Saint-Ferdinand,48.87815529789739,2.288518047864942
303452950,Hôtel de Ville de Fontenay-aux-Roses,48.790844603480856,2.2871455930319455
54000617,Docteurs Déjérine - Pte de Montreuil,48.85398448133697,2.41208288897222
653126035,Vanne - Saussaies,48.786404,2.338848
210745258,Jean-Pierre Timbaud - Vaucouleurs,48.867937,2.377885
19016646124,Vaugirard - Verrerie,48.820881336842,2.2367222622987
308082350,Malakoff - Place de la Porte Maillot,48.876733496638,2.2834577411413
42499285,Petit Palais,48.8667692,2.3157655
653080383,Bruneseau - Quai d'Ivry,48.824945637583,2.3885661363602
129135654,Victor Cresson - Telles de la Poterie,48.822698842979,2.2686498274964
37921892,Vinaigriers - Magenta,48.8731167,2.3593052
653123610,Pierre Lefaucheux - Traversière,48.82435208303827,2.2417913004755974
27269170,Quai aux Fleurs - Pont Saint-Louis,48.852915956209,2.3521957173944
54000562,Square Alban Satragne,48.875388227727,2.3559567333359
135806005,Mairie de Romainville,48.885109,2.435679
102326776,Jardin de l'Hospice Debrousse,48.861451061938,2.40568600595
653135378,Amaury Duval - Gabriel Péri,48.81718759671675,2.323841750621796
210751059,Hôpital - Campo-Formio,48.835405,2.358218
1057184567,Paul Signac - Aristide Briand,48.86950262156371,2.4502260982990265
34235349,Jean Calvin - Tournefort,48.84158856925782,2.348489575088024
559980654,George V - Christophe Colomb,48.87046,2.30104
18012983979,Gallieni - Lycée Charles Petitet,48.927640283627,2.3308986340524
54000615,Buzenval - Avron,48.851617204999,2.4015135973077
453172172,Porte d'Italie,48.817161987718954,2.360236309468746
478385490,Charles Gide - Fort de Bicêtre ,48.8071937956922,2.353984415531159
213706622,Vitruve - Davout,48.86053161154489,2.4091592812626543
213686749,Place de la Porte de Passy,48.857341095470794,2.2644165538827115
1057302263,Place Nationale - Château-des-Rentiers,48.829268,2.365212
42541542,Gare Montparnasse - Edgar Quinet,48.841487851079,2.3233232282801
82375611,Batignolles - Beudant,48.88216401466375,2.319852970540523
443402852,Place de Lévis,48.883546851533254,2.3131933808326726
38192,La Motte-Picquet - Grenelle,48.84858321339195,2.299347817897797
1062162270,Théâtre de La Garenne,48.905658361454,2.2345951981176
35101194,Place de l'Insurrection d'Août 1944 ,48.81477852751594,2.398074567317963
84958519,Arcole - Notre-Dame,48.853883541328,2.3493797332048
19331917084,Lycée Saint Exupéry - Juliette Savar,48.783021513972,2.4637357216879
66491395,Daumesnil - Hébrard,48.8429,2.38474
54000553,Marignan - Champs-Elysées,48.869495661232,2.3066138139003
458086607,Président Wilson - Baudin,48.89826887103676,2.2849336266517644
653081846,Jourdan - Monticelli,48.822032,2.329095
213689815,Porte d'Asnières,48.89035817610495,2.3036286234855656
443198808,Gaston Tessier - Rosa Parks RER,48.8963765,2.3743692
620676855,Camille Groult - Guy Môquet,48.787482746521306,2.3976725712418556
6294,Marché aux fleurs,48.855258115391,2.3473754525185
210738704,Mazagran - Bonne Nouvelle,48.870047123655,2.3511248454452
82565383,Jacques Kellner - Saint-Ouen,48.895809485802886,2.327897409164145
102745622,Raspail - Albert Schweitzer,48.81031545,2.34395871
13191324,Assas - Luxembourg,48.843734468779,2.3334283818759
213677219,Brillat-Savarin - Küss,48.822203,2.350422
85155919,Estienne d'Orves - Henri Ginoux,48.815388220397274,2.320886790760933
1062238429,Place de l'Europe - Quai de Bercy,48.82529858840266,2.3945679143071175
369011098,Paris - Laitières,48.84630274151258,2.4207553267478947
102343591,Louis Pasteur - Albert Petit,48.796261,2.317289
7247,Charonne - Pierre Bayle,48.858445054262,2.3903981223891
653134004,Louis Rolland - République,48.81710889740748,2.3193106434955717
389788858,Emeriau - Beaugrenelle,48.84791249714942,2.2843059897422795
1056947780,Faubourg Poissonnière - Dunkerque,48.880883445404436,2.349934279918671
38327,Victor Hugo - La Pompe,48.86795222470859,2.28146318346262
100925033,Gare de Lyon - Chalon,48.845666194202,2.3741452395916
109609241,Colmar - Victor Hugo,48.88652251096166,2.173960916697979
82562496,Benjamin Delessert - Jean Lolive,48.89392043619345,2.417981922626496
235197110,Place de la Gare,48.80253358011283,2.4275037646293645
417088374,Place Mongolfier,48.815160030060376,2.4592879414558415
439750210,Italie - Jardin Joan Miro,48.81990914045756,2.3592948541045193
476183970,Gare de l'Est - Place du 11 Novembre 1918,48.876327,2.3585464
27415246,Javel - André Citroën,48.846276485475,2.2786368057132
101491821,Jean Moulin - Place Victor et Hélène Basch,48.82764910241,2.3261967301369
1057319366,Quai de la Gare - Pont de Bercy,48.83730787972,2.3740861260598
653147618,Lucien Lanternier - Le Luth,48.93159430558871,2.2889783978462224
417623119,Mairie de quartier du Plateau - Mont-Valérien,48.8799933,2.2072437
428088564,La Jarry - Place Diderot,48.849726940367326,2.452013790607453
365886904,Berthier - Place Stuart Merril,48.885927922355044,2.2933450341224675
653083263,Lucien Bossoutrot - Général Martial Vallin,48.836956046311,2.2741072252393
85015750,Pergolèse - Malakoff,48.87521088779225,2.2842781618237495
27064639,Vaugirard - Pasteur,48.84040868803496,2.3154367133975033
102722579,Voltaire - Anatole France,48.891999360256904,2.284262739121914
75641607,Blaise-Desgoffe - Vaugirard,48.846128877747,2.3242672160268
39151458,Goutte d'or - Barbès,48.885124323627,2.3496962338686
468354634,Quai de l'Oise - Aisne,48.8906231,2.3833701
213682190,Place Jacques et Thérèse Tréfouël,48.842726498317,2.3125657439232
213692227,Square Louise Michel,48.884687354509,2.3441386967897
653137566,Mairie de Clamart,48.800612,2.262151
213674686,Place Jeanne d'Arc,48.829575,2.369126
38522,Douai - Pierre Fontaine,48.88229101148092,2.33324121683836
488889101,Bessières - Porte de Clichy,48.89611762451474,2.31790903955698
266422568,Place Edmond Michelet,48.860134890542,2.3500636965036
488872892,Emile Zola - Fondary,48.847051143113745,2.2953405976295476
54000632,Paul Vaillant-Couturier - Victor Hugo,48.89819702263572,2.293848017974069
379063990,Place du 14 Juillet,48.819266959525,2.3011998832226
210396518,Estrapade - Ulm,48.84512772828,2.3454568170362
42720305,Monceau - Malesherbes,48.8795079,2.3145456
221036108,Charonne - Bureau,48.854176,2.396093
82584215,Place Lafayette,48.829654975522,2.2638675570488
19495443023,Paul Bodin - Clichy,48.892594758409,2.3171403311203
1057730786,Halles - Bourdonnais,48.860448992575,2.3460162431002
131094294,Charles Tillon - Cimetière Communal,48.91844023641836,2.3935630917549138
494183852,La Motte-Picquet - La Tour Maubourg,48.856926701847,2.3096215831203
1057335613,Quai du Président Roosevelt - Pont Aval,48.8343883676388,2.2656820714473724
491687415,Delizy - Louis Nadot,48.896212845581346,2.4094578623771667
653083675,Maréchal Joffre - Verdun,48.85385,2.470307
653141822,Île de la Jatte,48.894036161302104,2.2666339203715324
488980540,Saint-Mandé - Fabre d'Eglantine,48.8453579,2.3965022
1057221951,Balzac - Olympes de Gouges,48.77850332486751,2.4006786569952965
653137567,Place Saint-Just,48.790379518724265,2.3895226791501045
54000600,Toqueville - Cardinet,48.88490187110713,2.3109393194317818
82455731,Cambronne - Villa Croix Nivert,48.845847561366,2.3017574474216
15212034,Gérando - Rochechouart,48.88294340845,2.3464846238494
1057399900,Placette Grégoire Collas,48.94342014002797,2.2487476095557213
491932748,Porte des Lilas - Faidherbe,48.87861855668978,2.4120327830314636
1057378487,Fort d'Aubervilliers,48.91502382370325,2.4035281687974925
1057737444,Place Ginette Hamelin,48.837853,2.382064
911767210,Alexandre Parodi - Quai de Valmy,48.879359419425,2.3665961623192
82336035,Saint-Germain - Ciseaux,48.853305277595,2.3344654618827
255322397,Auguste Blanqui - Corvisart,48.8300989,2.3502726
1314450240,Gare du Stade,48.9312676,2.2603778
101013666,Bercy - Villot,48.841795009027,2.3767850184816
559595472,Suffren - Champ de Mars,48.8547194,2.2952168
129016495,Taitbout - La Fayette,48.8733298892,2.3352625966072
16659964929,Arsène Houssaye - Friedland,48.874510616163,2.2994716674148
54000599,Lemercier - Cardinet,48.890097168851746,2.317377626895905
1057091571,Esplanade du Foncet - Camille Desmoulins,48.827090233494964,2.2606857866048813
210582231,Londres - Place d'Estienne d'Orves,48.876693805756986,2.3305362090468407
312870435,Dunkerque - Trudaine,48.88215166773376,2.3463253676891327
1015246367,Champs-Elysees - Bassano,48.871811807816,2.300238981843
129106450,Joseph Dijon - Ornano,48.89374453351521,2.3476678133010864
1057405802,Place Nelson Mandela,48.897874318180556,2.2182820737361912
27414544,Place Monge,48.842761803051,2.3524079471827
213894629,Square Denise Buisson,48.8562322730982,2.426436245441437
1057354004,Chemin de Bretagne,48.824753068884,2.2588385956052
129059516,Picpus - Louis Braille,48.839988788912,2.4005256685521
100923502,Crozatier - Faubourg Saint-Antoine,48.850440013405,2.378901366211
1227051850,Glacière - Soeur Catherine Marie,48.829522989420596,2.343570403754711
1057748427,Rottembourg - Général Michel Bizot,48.83787825992554,2.4044052511453633
54000560,Geoffroy - Marie,48.873781940593325,2.344513876337893
100933541,Vivaldi - Antoine-Julien Hénard,48.841923663276546,2.389728979467376
36391,Godot de Mauroy - Madeleine,48.869789,2.326347
100934967,Madagascar - Meuniers,48.83460464474706,2.3970650508999825
15309045,Marché Saint-Quentin,48.877356057652,2.3545114456374
101017160,Place de Rungis,48.82245594764965,2.347382729482953
1062783107,Buffon - Jardin des Plantes,48.842668466104875,2.3618587106466293
653086121,Louis Xavier de Ricard - Ancienne Mairie,48.84629899065091,2.472420372068882
653139897,Lebrun - Colonel Fabien ,48.78266870733145,2.381317801773548
285001735,Vivienne - Montmartre,48.871347597383,2.3414588347077
101011685,Charenton - Prague,48.848175129981,2.3763584494312
27415547,Square Etienne Jarousse,48.82485182597129,2.2925933450460434
54000543,Cloître Saint-Merri - Renard,48.858835448898,2.3518279194832
100769544,Harpe - Saint-Germain,48.851518815017,2.3436703160405
1057765913,Hôpital Necker,48.846043490118454,2.313245013356209
1057234527,Gare d'Argenteuil,48.947022436806705,2.256898172199726
49498164,Mairie du 8ème ,48.877932,2.318264
1062685145,Bibliothèque Nationale - Richelieu,48.868288993515,2.3380893096328
76121343,Abbé Groult - Convention,48.83596927866069,2.302064039509349
1057072168,Jules Guesdes - Général de Gaulle,48.81930581291959,2.278934195637703
1057366813,Hôtel de Ville de Sèvres,48.824363561289,2.2131047397852
1056715831,Marché Saint-Germain,48.85165625855281,2.335500307381153
101742129,Cherche-Midi - Hôpital Necker,48.84461063309956,2.317914068698883
1057360420,Place Aimé Césaire,48.783194713067815,2.2429127991199493
214119792,Gare RER - Malleret-Joinville,48.802936,2.42531
13912564,Bruant - Vincent Auriol,48.834848452929,2.3668264996271
37504995,Jean Monnet - Iles,48.823393984057304,2.2497073194874866
131908132,Parc Eli Lotar,48.91844993053703,2.3727085813879967
49117995,Condorcet - Turgot,48.87985155789093,2.345232367515564
125811629,Leredde - Tolbiac,48.82887629664,2.3744382709265
102307005,Villiers - Batignolles,48.88125253846116,2.31653843075037
1057753858,Place Charles Michels,48.846401,2.28502
54000590,Croix Nivert - Square Saint-Lambert,48.8430515215905,2.295200452208519
27359295,Benoît Frachon - République,48.85230729014318,2.415605485439301
81212212,Jean Jaurès - Jules Jacquemin,48.88433053604843,2.4082902455152104
54000587,Mairie du 14ème,48.83254578123,2.3254923149943
58311330,Place des Droits de l'Enfant,48.8274804,2.3319217
653087914,Marne - Charles de Gaulle,48.815071719544434,2.4121668934822087
41219552,Saint-Benoît - Jacob,48.85545136013941,2.3334722220897675
101738550,Didot - Place de Moro-Giafferi,48.8337,2.3215
54000622,Davout - Volga,48.852919679957296,2.410522909779111
82339935,Porte de la Muette,48.86302317841182,2.2687188170157406
27414713,Landy - Heurtault,48.915096534520316,2.375951372087002
36151,Favart - Italiens,48.871446353921,2.3382901058508
1062704564,Bourg l'Abbé - Saint-Martin,48.86393331949257,2.352406270802021
54000564,Paradis - Hauteville,48.874999954666755,2.3522757401923404
27363337,Bréguet - Sabin,48.856931678257,2.3706749462105
100967498,Stalingrad - Rigollots,48.84997403844251,2.45557576417923
6298,Gare du Nord - Saint-Vincent de Paul,48.880955741648,2.3524305148385
19858721250,Université Paris Est Créteil,48.787714467944,2.4461909509055
43247025,Jardins d'Eole,48.8869703,2.3668488
271426439,Buisson Saint-Louis - Saint-Maur,48.871746849303,2.372252832879
54000619,Porte de Bagnolet,48.864707139122984,2.408344637349607
101008598,Reuilly - Place Felix Eboue,48.84030274499962,2.394630398715453
75525462,Plantes - Moulin Vert,48.83005755305626,2.3232302069664006
95845524,Cité Riverin - Château d'Eau,48.870702423554306,2.358739863900845
38407,Flandrin - Longchamp,48.86877849178477,2.274354539176829
82554449,Porte Molitor,48.84524763511433,2.2569015249609947
39535340,Charles Frérot - Albert Guilpin,48.8155839183714,2.3505029082298283
1062797394,Place de la Madeleine - Royale,48.869228052648,2.324421107769
66491391,Claude Vellefaux - Hôpital Saint-Louis,48.872859139003,2.3700717069851
54000570,Place de la Nation - Picpus,48.846821681548,2.4001130461693
1062256852,Maxime Gorki - Louis Aragon,48.78909814728443,2.368387877941132
54000582,Edgar Quinet - Gaité,48.841160928966,2.324595451355
1057373549,Gare RER les Grésillons,48.919898633572764,2.31458459136273
653089942,Poissonniers - Championnet,48.89543299733937,2.3530178144574165
201923447,Murat - Porte de Saint-Cloud,48.83750862621299,2.2577651962637906
220504949,Grande Truanderie - Saint-Denis,48.8626302,2.3498075
38060,Gare Montparnasse - Arrivée,48.843827994315,2.3225811123848
41464928,Sèvres - Lecourbe,48.8447677,2.3110086
27296946,Square Claude Bernard,48.89876016219984,2.375325746834278
653143563,Henri Ravera - Gabriel Péri,48.79722273833844,2.302115857601166
15308712,Jules Vallès - Charonne,48.854284379935,2.3847674578428
82332239,Ecoles - Carmes,48.848904447989405,2.3473486304283147
15462861,Crevaux - Bugeaud,48.87080942867,2.2811490076919
265201872,Bourdon - Pont Morland,48.8478103,2.3659356
9931940126,Diane Arbus,48.898800717199,2.3524022474885
443153677,Perle - Vieille du Temple,48.8601346,2.3611206
7295,Chevreuse - Montparnasse,48.841739161231,2.3315522167367
66505510,Epée de Bois - Mouffetard,48.841508690388835,2.350066713988781
1062245074,Roger Salengro - Général de Gaulle,48.820029010376956,2.4846760556101803
1057758764,Cadix - Hameau,48.8340107632249,2.289516180753708
653144717,Camille Risch - Paul Armangot,48.774703,2.373685
42275164,Reuilly - Daumesnil,48.8395385,2.3972516
75345531,Turbigo - Française,48.86358858111446,2.3477794602513313
97824043,Charentonneau - Maisons Alfort,48.809932980484355,2.443288456496946
66491379,Place des Abbesses,48.884542726149725,2.3386867716908455
35600927,Mairie du 16ème,48.863936848471994,2.2765953093767166
100868590,Cité Vaneau,48.8542210666207,2.319614924490452
30730,Place de la Nation - Charonne,48.848364667777,2.3997623859813
54000616,Pyrénées - Avron,48.853246898211985,2.405871044529538
66491381,Leibniz - Jean Dollfus,48.896328348515986,2.333390423834684
77773,Gare de Reuilly - Picpus,48.84267354116789,2.3972943797707558
52518,Louis Lumière.,48.86216198070008,2.41112578185621
1062874070,Jourdan - Cité Universitaire,48.819897343156676,2.3397007964124366
54000554,Gare Saint-Lazare - Stockholm,48.877127316667654,2.322417162358761
27415389,Gambetta - Père Lachaise,48.864295696165875,2.398228667282044
66491367,Beaubourg - Michel-le-Comte,48.862534941806,2.3543103039265
1062802530,Niger - Soult,48.84369906369085,2.410361237220498
653091206,Porte de Clignancourt - Ney,48.899641123987095,2.344321422278881
85031184,Molitor - Michel-Ange,48.845182081538,2.262112773566
15309674,Square Montholon,48.876620377545024,2.3457641154527664
27414902,Louis Blanc - La Chapelle,48.884008964514,2.3599335551262
49094984,Herschel - Observatoire,48.84342376221923,2.3376645147800446
82574198,Mairie d'Issy,48.823767792468,2.2723111510277
15463487,Pergolèse - Marbeau,48.873568706869,2.2815125225299
210395439,Centre Georges Pompidou,48.861419,2.352581
39169029,Sorbier - Ménilmontant,48.868542395661,2.3897721245885
66505516,Cordelières - Arago,48.83548071896613,2.348572461702221
49341735,Centquatre,48.889333538455,2.3707854375243
125623876,Phalsbourg - Villiers,48.88242307900951,2.3090453445911407
2515672078,Petit - Georges Thill,48.88603131999171,2.3895753175020222
35317080,Emile Reynaud - Porte de la Villette ,48.90098953630053,2.3887022584676743
82396562,Mairie du 10ème,48.872089449907,2.3575825989246
653146273,Chausson - Gabriel Péri,48.921891003481115,2.2952306270599365
1062882947,Bargue -  Dutot,48.837884,2.308876
653091677,Place de l'Europe - Alfortville,48.78913702405837,2.4284800887107854
35472299,Pyrénées - Plaine,48.85026702458,2.4062821269035
128932790,Arsène Houssaye - Champs-Elysées,48.873409276267,2.2977904602885
338824395,Bourse du Travail,48.868976638826,2.3623438552022
1062982815,Gare de Bellevue,48.8192404685572,2.2295309230685234
1237624420,Maurice d'Ocagne - General Maudhuy,48.82414282524159,2.3158789426088333
27415179,Sarrette - Général Leclerc,48.825030852925,2.3264128693982
100760396,Turbigo - Réaumur,48.865574047531,2.3564198613167
129152818,Place de la Fraternité,48.85716405838368,2.422847449779511
210585225,Dunkerque - Alsace,48.879355,2.358379
27313492,Petites Ecuries - Faubourg Saint-Denis,48.87287120589831,2.3542150855064397
262607058,Charles de Gaulle - Plateau de Vanves,48.82233088973263,2.298571803412886
39626277,Lacuée - Lyon,48.849268481958,2.3704585433006
1074095810,Maurice Payret-Dortail,48.87811957063342,2.2233625128865246
128880156,Archives - Rivoli,48.857346707443,2.3539767041802
27364642,Maine - Liancourt,48.835064363954,2.323731449974
1062911162,Solitaires - Place des Fêtes,48.876601,2.391769
266963426,Beaumarchais - Saint-Gilles,48.8580378,2.3679352
129023855,Parme - Clichy,48.881266424227,2.3281970934506
128890772,Bosquet - Saint-Dominique,48.858651709526,2.3037165802346
66489651,Louis le Grand - Italiens,48.870508937204,2.3340544619393
1805255023,Sèvres - Général Leclerc,48.830121559055,2.2314262390137
1057207064,Saint-Denis - Université,48.94563430946964,2.3638297989964485
27415411,Frères Flavien - Porte des Lilas,48.8780992764359,2.41104629853209
210387163,Saint-Denis - Réaumur,48.8661116315789,2.3507790675507594
653150828,Joffre - Aigle,48.904033,2.245096
443654970,Française - Etienne Marcel,48.864053304653766,2.347587011754513
15153595,Nationale - Vincent Auriol,48.83252708397293,2.362354410392119
471094898,Olivier de Serres - Leriche,48.83460221715206,2.2957482933998112
1057290902,Cours de Vincennes - Soult,48.846918761569,2.4105220288038
42341698,Cléry - Montmartre,48.867458,2.3445211
653187900,Adolphe Lalyre - Armand Silvestre,48.90406266961591,2.273416221141815
128874528,Temple - Haudriettes,48.861636880212,2.3566960206458
1062827573,Bézout - Général Leclerc,48.82884804502439,2.3285973072052
54000542,Blancs-Manteaux - Archives,48.85941800703,2.3559471219778
100759356,Montmartre - Etienne Marcel,48.86502194581,2.3450684401448
331153695,Square Emile - Chautemps,48.867433724231,2.3536357283592
1074142878,Hôtel de Ville de Chaville,48.80887149094033,2.188134044408798
213680246,Didot - Mariniers,48.82650543613106,2.313136198271666
54000465,Etienne Marcel - Montorgueil,48.86450567259199,2.3461959511041637
1074060095,Lally-Tollendal - Armand Carrel,48.88270066221072,2.374717555940151
80419347,Lagny - Auguste Blanqui,48.84922568052601,2.4218603968620305
1063000561,Gardenat-Lapostol - Velettes,48.87387,2.224185
11874261013,Place du 17 Octobre,48.91962690034779,2.2978286134199792
213680553,Adolphe Pinard - Victor Hugo,48.8236825874564,2.3077843710780144
1063012692,Kléber - National,48.906333898712234,2.2393910586833954
54000538,Mairie du 3ème,48.86446178139141,2.361762821674347
66499894,Sainte-Elisabeth - Turbigo,48.86610337431,2.3596492409706
100767550,Mairie du 4ème,48.855949910497,2.3563823103905
96608796,Fille du Calvaire - Turenne,48.86210505412563,2.3649600148200993
653094517,Cesaria Evora - Rosa Parks,48.89717672825043,2.3745173960924144
129029327,Victoire - Laffitte,48.87514373494672,2.338118505144376
1063971944,Saint-Michel - Luxembourg,48.84501507626,2.3394941166043
1064000778,Gare d'Austerlitz - Pont Charles de Gaulle,48.842319830109,2.3670300096273
27415512,Parc Roger Salengro,48.905303858642,2.31055945158
523900881,Cité de la Musique,48.888796556487,2.3925811931922
1063429705,Eugène Varlin - Place de la Paix,48.792862,2.363093
1062833975,Froidevaux - Boulard,48.835147319625,2.3294411972165
58391194,Tiron - Rivoli,48.855692253233,2.3579058051109
2515756572,Verdier - Jean Jaurès,48.81614048711214,2.3123561963438988
1063410400,Alouettes - Maréchal de Lattre de Tassigny,48.85511009293948,2.4930700287222862
80298493,Mairie du Kremlin-Bicêtre,48.81191981537702,2.3570189997553825
98132679,Jean Bleuzen - Square du 11 Novembre,48.8232579,2.2965213
478250062,Rivoli - Musée du Louvre,48.86364636851945,2.33409583568573
48800374,Place de l'Hôtel de Ville,48.8573314,2.351458
1063044618,Bas - Gabriel Péri,48.91585580539625,2.2948095202445984
11908510683,Séminaire de Conflans - Liberté,48.823194,2.404179
1063421211,Barbès - Monique Maunoury,48.81552718820216,2.3687169334905405
569583918,Choiseul - Quatre Septembre ,48.8699355331869,2.3359975218772893
1074333296,Hippodrome Paris-Vincennes,48.82048387758518,2.446271181106568
54000537,Saint-Gilles - Turenne,48.858158956779,2.3647149920992
11908496227,Gardenat Lapostol - Franklin Roosevelt,48.871839,2.222505
49423507,Pau Casals - Neuve Tolbiac,48.8311602,2.3774395
128834707,Jean-Jacques Rousseau - Deux Ecus,48.86297805972131,2.3414635285735126
78374110,Square Pierre Lazareff,48.867141720746,2.3483933508396
653097126,Place Paul Delouvrier,48.89197621431365,2.3851288855075836
391845823,Candale - Mehul,48.8893935006175,2.414379715919495
653140345,Édouard Vaillant - Place Jean Jaurès,48.86265537999924,2.2089037319128613
15290700,Aboukir - Alexandrie,48.86868344444473,2.3502043269474897
6352,Saint-Bon - Rivoli,48.857999643315,2.3502172809763
129083553,Porte de Saint Cloud - Parc des Princes,48.838662757066,2.2525164484978
1074204954,Quai Jules Guesde - Saint-Simon,48.80391487219,2.4089661620274
380891087,Place de la Bastille - Bourdon,48.852364355271,2.3681089282036
27206194,Saint-Jacques - Val de Grâce,48.8417514,2.3413893
128878135,Village Saint-Paul,48.852639866625,2.3607301712036
1063984816,Gare du Nord - La Chapelle,48.884178287286,2.3561057075858
1396728955,Bastille - Beaumarchais,48.853833463852,2.3685702681541
2515885093,Waldeck Rochet - Germaine Tillon,48.91105960199651,2.3676301538944244
653072212,Place du 8 mai 1945.,48.938882272105,2.3566243797541
54001189,Chaussée d'Antin - Haussmann,48.87243,2.33359
653153519,Gare des Vallées,48.913179,2.257726
276989966,Oratoire - Rivoli,48.861342760889,2.3400047421455
210386007,Alger - Rivoli,48.864773553495,2.3294493936128
6293,Mairie du 2ème,48.8672190355135,2.3404625437747044
128843085,Place du Lieutenant Henri Karcher,48.863490871724466,2.3400671035051346
1063027377,Grande Rue - Europe,48.8218104687602,2.205879874527455
15433394,Custine - Ramey,48.888735896947,2.3469526693225
653085678,Berthier - Porte de Clichy,48.894222687781,2.3125872006816
6245,Ventadour - Opéra,48.866810653323,2.3343884482519
18013122841,Port - Confluence,48.936093926526,2.3436167797955
27414358,Saint-Honoré - 29 juillet,48.86557114282421,2.330567417577153
101751231,Saint-Amand - Labrouste,48.834097274832295,2.3087677359581
18013073681,Gare de Sèvres - Ville d'Avray,48.826262366227,2.2001516849313
17174675707,Saint Pères - Saint Germain,48.853729675265,2.3300181032703
39169877,Saint-Placide - Cherche Midi,48.8490535919234,2.325317971408367
653155159,Marx Dormoy - Château Sainte-Barbe,48.791782341055324,2.297856844961643
653099465,Amédée Huon - Fort d'Ivry,48.805131376899986,2.388489693403244
1074339090,Stade Pershing,48.829107826857,2.4583535268903
323468705,Saint-Honoré - Musée du Louvre,48.863443132848,2.3348781846405
1810975577,Guy Môquet - Parvis Georges Marchais,48.79518840095975,2.35943466424942
17364714962,Marseillaise - Grenade,48.889371092747,2.3979396821544
17364417797,Decrès - Alésia,48.832200060759,2.3139070151575
35380305,Le Goff - Gay-Lussac,48.846102400979,2.3412207886577
1063053136,Square Victor Basch,48.914304862261,2.2289156913757
54000596,Jouffroy d'Abbans - Villiers,48.884215547037,2.3056533560157
653040243,Archives - Pastourelle,48.8623615,2.3595041
1063061372,Résistance - Parmentier,48.85965138131299,2.436705082654953
2705356759,Jean Jaurès - Paul Lafargue,48.884933177666,2.2484488785267
214019379,Quai de l'Aisne - Général Leclerc,48.895713,2.400571
82574979,Arthur Ranc - Hôpital Bichat,48.8978712500682,2.333521842956543
2705290225,Suresnes - Muette à Neuilly,48.868570404348,2.266000919044
100790494,Bréa - Raspail,48.842738478258,2.3297942217634
1074410417,Verdun - Carnot,48.808439376064946,2.373795211315155
1074352578,Parc Floral du Bel Air,48.839285711865735,2.438560165464878
653156540,Place de la Division Leclerc,48.793824988636516,2.2731140430551027
54000573,Cardinal Lavigerie,48.832934193699835,2.402636749399156
1981490798,Belfort - Victor Hugo,48.9018492,2.3172724
129080400,Belles Feuilles - Place de Mexico,48.865804746474,2.2829206287861
18013112116,Porte Dauphine,48.871139344351,2.2749781616017
1074428106,André Theuriet - Blagis,48.77977325745441,2.3130525648593903
653102462,Lampes,48.81152481985875,2.4017931148409843
16816575934,Henri Barbusse - Marcel Cachin,48.93742089281,2.3720374971659
1057210479,Jules Guesdes - Carnot,48.93828169931872,2.3508992046117783
2705338817,Victor Hugo - Gare,48.923133952658,2.2600970417261
210328645,Place André Malraux,48.863925158727,2.3356226831675
311153993,Les Halles - Saint-Eustache,48.86362695901683,2.342623919248581
99886640,Place des Victoires,48.8660354,2.3420333
6297,Victor Massé - Jean-Baptiste Pigalle,48.8811043724,2.3366955667734
632086890,Place de l'Eglise - Vitry-sur-Seine,48.791922819921815,2.395057752728462
653031913,Réaumur - Montmartre,48.868230999759,2.3438260338876
208603342,Coquillière - Louvre,48.863795909662,2.3425736278296
653092274,Porte de Pantin.,48.889199725577,2.3950181901455
66491366,Saint-Marc - Feydeau,48.870326843044,2.3418715826353
27414527,Danielle Casanova - Opéra,48.867643242297,2.3333894088864
129096696,Léon - Doudeauville,48.88832421845225,2.353573372638597
1599896463,Magenta - Chabrol,48.876495350882,2.3560990020633
210408693,Vaugirard - Monsieur le Prince,48.848951441614,2.3411329463124
49424560,Saint-Mande - Picpus,48.845127728278,2.4015686296482
653165196,Les Blagis,48.785205,2.302526
11146696292,Victor Hugo - Paul Eluard,48.819602554907,2.4114319673051
11146714746,Blanqui - Docteur Bauer,48.907735489085,2.3407192814591
1074390359,Youri Gagarine - Commune de Paris,48.782427463041,2.3939734697342
653159330,Quai de Sèvres - Manufacture Nationale,48.828688,2.22499
653110858,Silly - Louis Blériot,48.83219045374266,2.2340199351310734
653107480,Paganini - Davout,48.85135,2.412021
1988517250,Stalingrad - Henri Luisette,48.78363092456589,2.366935946761926
653166892,Gare de Robinson,48.7799259211605,2.281828634440899
653104215,Sorbier - Gasnier-Guy,48.865217631011,2.3936596512794
653106960,Gare RER - Maurice Grandcoing,48.813881,2.392429
82468690,Dutot - Place Alleray,48.836826091766,2.3071701095578
16899499876,Jardin Modèle - Pierre Boudou,48.914866710946,2.3057010525935
74864208,Bagnolet - Place Saint-Blaise,48.85973,2.40334
2002864789,Strasbourg - Saint-Denis,48.869601642433,2.3542908579111
1074398925,République - Louis Loucheur,48.823549261189,2.5101865455508
12225158518,Henri Barbusse - Gabriel Péri,48.801773795836,2.2874166362216
567884788,Vincent Auriol - Louise Weiss,48.834001935501,2.3703888058662
99950133,André Mazet - Saint-André des Arts,48.85375581057431,2.3390958085656166
17721073284,Mairie,48.87914304162,2.4163350908311
16899518505,Mariotte - Batignolles,48.884571659595,2.321469503475
17729456391,Londres - Europe,48.878618556803,2.3248164693922
1057203651,Stade de France - Francis de Pressensé,48.919141953558,2.3620655760169
39565873,Jouffroy d'Abbans - Malesherbes,48.8850134,2.3070717
18013132487,Charenton - Wattignies,48.836919119234,2.3916775206425
12225289563,Béranger - Félix Faure,48.80404828621485,2.2848263373723436
74805344,Pierre Charron - Champs-Elysées,48.870103359864,2.3043501377106
12196660096,Bichat - Grange aux Belles,48.873688,2.365015
16898865154,Stéphanie Bouvard - Gambetta,48.814548138856,2.4024386957288
76352106,Saint-Augustin,48.8762009747008,2.319786250591278
78124875,Mathis - Flandre,48.890642989898,2.3762554675341
2515701705,Mûriers - Père Lachaise,48.864130509668044,2.39164982067019
17869323774,Chastenet de Géry - Marcel Paul,48.800123,2.3567359
15550433574,Martyrs de Châteaubriant - Jean Grandel,48.951432,2.211214
486750405,Ney - Porte de Montmartre,48.897918,2.3364872
11438171152,Place Charles de Gaulle,48.826073335699,2.1894485725692
10773448319,Clef des Champs - Albert Dhalenne,48.914938,2.330665
16529895896,Gare - Aristide Briand,48.821410564722,2.2555950104387
102339791,Place du Maréchal de Lattre de Tassigny,48.821707715257055,2.2853431485432423
27363206,Riquet - Marx Dormoy,48.89021003702,2.3601756244898
52474,Belleville -  Pré Saint-Gervais,48.875565910073,2.3930460959673
101015227,Chevaleret - Louise Weiss,48.832586513351,2.37121138812
11218473640,Bons Raisins - Voltaire,48.87282451461399,2.1947155570850896
125370566,Manin - Secrétan,48.8791665,2.3787959
66491396,Château de Vincennes,48.84423193255657,2.439209537709179
102328355,Place Denfert-Rochereau,48.843252536286684,2.245987951755524
54000578,Bobillot - Tolbiac,48.8255961335041,2.350204177200794
653180903,Paix - Verdun,48.900504,2.261173
102724418,Général Leclerc - Bièvre,48.782414428747316,2.3166695237159733
653184632,Edith Cavell - Volta,48.901616564286975,2.269354350864887
653222953,Mairie de Rosny-sous-Bois,48.871256519012,2.4865807592869
653110492,Danielle Casanova - Ledru-Rollin,48.815783497876815,2.383259721100331
84960402,Gobelins - Port-Royal,48.837135900263,2.3515201359987
16529911795,Porte de Versailles,48.832324016657,2.2875617349045
42950428,Place du Docteur Yersin,48.82010494991975,2.3725583776831627
100921894,Léon Frot - Charonne,48.854963800335234,2.387217085372007
653193536,Maxime Gorki - Paul Vaillant-Couturier,48.79673508795443,2.3683342337608337
54000589,Cambronne - Mademoiselle,48.843277330035214,2.30230766886348
74692052,Francoeur - Caulaincourt,48.8899944409612,2.342529706656933
35080917,Euryale Dehaynin - Loire,48.886248917304805,2.3774591088294987
101759167,Lecourbe - Convention,48.83923319241899,2.2915197908878326
653114003,Dôme - République,48.832681,2.250257
89553051,Pyrénées - Cours de Vincennes,48.847796779935,2.4061721563339
54000591,Franquet - Labrouste,48.83287705011431,2.306762784719467
37420,Hauteville - Bonne Nouvelle,48.87077436024,2.3496496368327
7402,Roquette - Auguste Laurent,48.858001906023354,2.381797702650783
75352635,Place de la vache noire,48.81040517059777,2.327060401439667
34836174,Place Charles Digeon,48.84354203133597,2.418427169322968
6354,Gouthière - Poterne des Peupliers,48.820507,2.351342
102287315,Félix Faure - Convention,48.841249336041,2.2883866008495
39776330,Buzenval - Vignoles,48.853858171688,2.4000040814281
35263507,Port Royal - Hôpital Cochin,48.838608030238,2.3406994164846
27415194,Gergovie - Alésia,48.83088717455243,2.318882101207347
653114443,Place Eustache Deschamps,48.793855,2.336637
653190196,LCL Campus - Place Oscar Niemeyer,48.805342480621576,2.363983690738678
27363156,Général De Gaulle - Vivien,48.83607420090204,2.4189166724681854
16206842336,Moscou - Edouard Vaillant,48.90755810177,2.4689837335263
66491409,Guillaume Tell - Parc Henri Barbusse,48.88958925894009,2.4198862910270695
82583924,Pyrénées - Charles Renouvier,48.86095933229224,2.400421852042113
124183944,Hector Malot - Daumesnil,48.84693552991762,2.3770876228809357
27363389,Bercy - Traversiére,48.846192642574,2.3703800886869
66491373,Pierre Joseph Desault,48.82110230800372,2.378775402903557
27363058,Suffren - La Motte-Piquet,48.850881230919,2.3012199997902
37995,Dom-Pérignon - Gravelle,48.825481574435,2.409880310297
82429586,Duméril - Jeanne d'Arc,48.838151608087,2.3571084495564
102751453,Hôtel de Ville de Vincennes,48.84827609706963,2.4398955702781677
27399547,Dominique Pado - Croix Nivert,48.83648798164934,2.2897250577807426
54000610,Jean de la Fontaine - Boulainvilliers,48.85264791461651,2.2758664190769196
101022698,Olympiades,48.826764665199,2.3650860786438
102748267,Montreuil - République,48.85026349463687,2.4345204234123234
54000583,Tombe Issoire - René Coty,48.830512876709,2.3343613743782
74858883,Pereire - Saussure,48.888229075478,2.3101296275854
63279,Siam - La Pompe,48.861720329027264,2.275346568555312
125918662,Marcadet - Ramey,48.890875,2.3449019
15163771,George Sand - Jean de La Fontaine,48.84986918764119,2.268257387525699
82571023,Alexandre Dumas - Place de la Réunion,48.85533710742046,2.3997703687646292
82335295,Saint-Séverin - Saint-Michel,48.852731305488,2.3440927639604
27363205,Porte de la Plaine,48.82805169605981,2.2924277186393742
653197206,Marcel Pourtout - Édouard Manet ,48.87555620763429,2.1655967831611638
27415256,Sahel - Général Michel Bizot,48.840872964793355,2.4044444784522057
6497,Duhamel - André Gide,48.8365662244334,2.312707121097412
653118283,Ancienne Mairie - André Morizet,48.838311,2.234077
124167835,Lavoisier - Missak Manouchian,48.86286468896063,2.495676465332508
66491384,Place Aristide Briand,48.82189236575831,2.413003742694855
16206691682,Général Leclerc - République,48.915885074177,2.2682306702811
49829553,Legendre - Nollet,48.887742186754224,2.320293079881375
102752610,Mairie de Bagnolet,48.868421318555,2.4179587885737
37848502,Pierre Brossolette - 12 Février 1934,48.8176962416867,2.3076123744249344
58086242,Square des Amandiers,48.86615630668046,2.3891324177384377
27415371,Charonne - Alexandre Dumas,48.856077415056,2.3948693275452
16931052467,Jean Jaurès - Place de la Libération,48.90617751921,2.4391458057475
82440673,Maine - Jean Zay,48.837925263898,2.3225428909063
28233012,Marceau - Président Wilson,48.8652359,2.3002513
54000624,Gambetta - Tourelles,48.875337902264,2.4059921130538
101488317,René Coty - Place Denfert-Rochereau,48.833056477316,2.3329411447048
54000552,Rome - Provence,48.874230055580306,2.325570111724113
16930981813,Gabriel Péri - Place de la Libération,48.819828421929,2.3117361743705
66491382,Guy Môquet - Compoint,48.89213559044868,2.32321947813034
39882420,Championnet.,48.8953643,2.3498166
54000547,Quatre Vents - Carrefour de l'Odéon,48.851751374458864,2.338161695134053
27415360,Reynaldo Hahn - Lagny,48.849266043601794,2.412330328844772
82588494,Verdier - République,48.815403766277,2.31739372015
54000568,Philippe-Auguste,48.851853488265,2.3932945355773
82425449,Bois de Vincennes - Polygone,48.83544491617421,2.431421081436563
7234,Colonel Pierre Avia,48.8296843300915,2.275342586850291
82551956,Marché d'Auteuil,48.84842761367387,2.265253821160005
85160045,Arthur Auger - Jean Jaurès,48.813736445585235,2.3069277405738835
35816213,Passy - Place du Costa Rica,48.8584893,2.2839655
653190279,Jean-Baptiste Charcot - Sainte-Geneviève,48.90310883721567,2.278892956674099
99840124,Regard - Rennes,48.847385404956,2.3268555477262
39311270,Pasteur - Cotentin,48.8389284,2.316356
82413301,Ménilmontant - Oberkampf,48.866617658681,2.3830134404158
80077998,Lorraine - Jean Jaurès,48.8863865,2.3825772
13248144,Volontaires - Vaugirard,48.84132050184004,2.30808901725357
82408364,Guillaume Bertrand - République,48.863825174341,2.380906377155
66491372,M.- A. Lagroua Weill-Hallé -  F. Dolto,48.828595283857425,2.380220606266108
54000631,Victor Hugo - Bineau,48.88758225888669,2.2783890366554265
653121023,Fief - République,48.83170888166024,2.255771979689598
76507850,Dantzig - Lefebvre,48.83013921586756,2.295934036374092
653194214,Hôtel de Ville de Rueil-Malmaison,48.878194,2.181724
11375742,Arsonval - Falguière,48.84040040365445,2.313117867297474
66491369,Montparnasse -  Square Ozanam,48.843310567822,2.3265242949128
27363397,Jean Bologne - Passy,48.857566889784465,2.280027395306772
39878420,Pyrénées - Dagorno,48.855425770695085,2.4051643162965775
27415333,Crimée - Ourcq,48.894104140316,2.3729460884673
19867919889,De Gaule - Moulin,48.885816808239,2.229607694148
42588096,Bobillot - Moulin des Prés,48.828657346203,2.353020646317
101010226,Porte de Charenton,48.831240105856,2.3989107459784
54000623,Mairie du 20ème,48.865302324275,2.3990669846535
99798962,Place Saint-André des Arts,48.852886173881,2.3426544293761
82588656,Rond-Point Rhin et Danube,48.840452820991764,2.2280225157737736
35471668,Flandre - Ourcq,48.89260159189023,2.3790915682911873
27415500,Point du Jour - Jean Jaurès,48.828753141436465,2.245911467014621
11580442,Geoffroy-Saint-Hilaire - Saint-Marcel,48.83907826424974,2.356877340669728
27414932,Saint-Maur - République,48.864185861455,2.3783174157143
125881065,Metz - Marne,48.891163,2.3865705
54000627,Bertrand Sincholle - Henri Barbusse,48.89925982394349,2.3042294383049016
54000629,Commandant Charcot - Bretteville,48.87530570765423,2.2558460757136345
27415004,Général Michel Bizot - Claude Decaen,48.83481262982544,2.400927788127704
27415128,Ivry - Baudricourt,48.824695995415006,2.363106073577468
84961467,Lacépède - Linné,48.8437035476636,2.354651279747486
27414937,Saint-Mandé - Docteur Arnold Netter,48.84462585769668,2.404946386814118
27363504,Jacquier - Didot,48.82953336292279,2.318179272115231
100227241,Guynemer - Jardin du Luxembourg,48.8466127,2.3325478
2254322638,Verdun - Pierre et Marie Curie,48.812822398263286,2.3707106709480286
15377776,Paul Valery - Victor Hugo,48.87137406080164,2.2887128591537476
70736110,Etienne Dolet - Place Maurice Chevalier,48.86798303359366,2.3851405311143026
16210188070,Convention - Campus de Bobigny,48.914920058264,2.4172238067445
16210512714,Pablo Picasso - Maurice Thorez,48.906887812943,2.4489325365198
129095489,Batignolles - Abel Truchet,48.883103904582,2.3238347490884
66507230,Saint-Marcel - Hôpital,48.839504424583,2.3609894170229
66491388,Alfred de Vigny - Place du Général Brocard,48.87836138361425,2.305254448220567
16043228469,Perrault - Place du Louvre,48.860273568996,2.3412468419093
15189890802,Fontaine du Tertre - Calvaire,48.8702539,2.2187778
16043316164,Résistance - Romain Rolland,48.950873482371,2.2310190077797
121160813,Place Tristan Bernard,48.8794936,2.2915423
15298647,Temple - Jean-Pierre Timbaud,48.86446597201,2.3660597205162
27415083,Place d'Italie - Soeur Rosalie,48.831908520394,2.3546943448098
311552027,Temple - Charlot,48.865709343796,2.3652737250724
14623073464,Marcel Monge - Marcel Dassault,48.86096384533371,2.2246733296048142
11063317380,Sèvres - Maréchal Juin,48.8324305,2.2292812
54000628,Claude Debussy - Marc Bloch,48.910388180512,2.3117771744728
54000551,Galilée - Vernet,48.871715878697,2.2985444962978
15187848239,Place Jean Mermoz,48.9220937,2.2718348
16043242148,Charles de Gaulle - Rue de l'Alma,48.896620592993,2.252313240191
13568870765,Place des Arts - Jean Mermoz,48.880391139734,2.1832160452221
214097180,Paul Doumer - Stalingrad,48.806518992199,2.3368880152702
17225742003,Louis Armand - Bernard Palissy,48.916974,2.313384
54000621,Ménilmontant - Père Lachaise,48.863287291502,2.3869940266013
2515618216,Hippodrome de Longchamp,48.86413226532,2.239905372262
16965900639,Payenne - Square George Caïn,48.8578329,2.3622643
85123644,Pyrénées - Ménilmontant,48.8693268535238,2.395084574818611
17018170219,Pavé des Gardes - Charles Vaillant,48.81168551728,2.2111820107205
11908488283,Georges Pompidou - Verdun,48.875481,2.232443
218903767,René Boulanger - Lancry,48.8685433,2.3600032
253357936,Félix Faure - Lourmel,48.83868901709515,2.2818081825971603
42517412,Gambetta - Saint Fargeau,48.871244610447015,2.4039056897163396
213699079,Macdonald - Césaria Evora,48.89883,2.37933
15066765479,Gare RER - Général de Gaulle,48.933548439566,2.3064726536317
213676294,Chevaleret - Tolbiac,48.82941,2.375934
95073815,Saint-Lazare - Place d'Estienne d'Orves,48.8768345,2.3329067
17451132826,Epi d'Or - Chevilly,48.781109786782,2.3549050362061
10647548670,Nungesser - Santé,48.852335,2.448967
10647608657,Dora Maar - Nadia Guendouz,48.905452421305,2.3220406472683
16043282800,Port - Maurice Chevalier,48.832474421632,2.490257616467
54000556,Gare du Nord - Faubourg Saint-Denis,48.879612765504,2.3568402975798
37647,Gare du Nord - Dunkerque,48.880423508429,2.3527636751533
100863462,Musée d'Orsay,48.859726157909,2.3258604481816
54000555,Jean Mermoz - Champs-Elysées,48.869689856852,2.3107324540615
17047102542,Ménil - Argenteuil,48.925901818305,2.2741496502338
17450286381,Stalingrad - Barbara,48.809223658808,2.3175904558822
17225721242,Verdun - Henri Barbusse,48.802056061754,2.3159965061736
123546861,Place du Colonel Fabien,48.87756832086,2.3698791861534
16134135570,Stalingrad - Général de Gaulle,48.823450589614,2.4965062363218
11266280626,Cartier Bresson - Denis Papin,48.902616,2.397814
27033125,Pierre Ginier - Clichy,48.8867667,2.326228
213680917,Abbé Carton - Plantes,48.827673823166,2.3209181427956
49039283,Carpeaux - Place Jacques Froment,48.8906542,2.3309428
35642049,Jemmapes - Ecluses Saint-Martin,48.87748519186726,2.3660067468881607
17261310217,Saint-Germain - Verdun,48.882877330093,2.4331868384644
11851012506,Jean Jaurès - Place du Dr Roux,48.927567032796,2.2947337017374
2515774908,Val-Fleury,48.807671407991,2.2407217696309
13341879803,Châteaudun - Place de la Liberté,48.90970830301211,2.2454486480600626
15826185972,Faubourg St-Antoine - Place de la Nation,48.8487726,2.393606
12943772652,Place Henri Dunant - Gare RER,48.788093281931,2.2909234046643
82423726,Gare de Lyon - Roland Barthes,48.84395729494058,2.3790882155299187
12959947458,Parc des Pierrettes,48.7973062,2.2909969
12948189248,Guy Môquet - Jean Moulin,48.940931521020836,2.363948999931771
12806084887,Avenir,48.8103438,2.3003776
16134083337,Maréchal Leclerc de Hauteclocque - Marché Buzenval,48.858446,2.192077
1074347188,Champs de Manoeuvre - Cartoucherie,48.835261,2.447974
84986959,Bastille - Biscornet,48.851355779579,2.369220033288
18815024485,Charles de Gaulle - Les Sablons,48.880987514929,2.2715748726513
16379269732,Président Roosevelt - Rouget de Lisle,48.83047518749,2.2616135525345
39149651,Richard Lenoir - Place de la Bastille,48.8538327,2.3697222
17451195211,Jean Bouin - Gouverneur Général Eboué,48.824792734266,2.2651904328524
11851103861,Division Leclerc - Kléber,48.798666226364,2.2833752789972
210581084,Gare Saint-Lazare - Place de Budapest,48.877753,2.327339
11438049493,Hélène et François Missoffe - Emile Borel,48.89990653843488,2.321543991674844
11437651826,Adrien Lesesne - Docteur Bauer,48.90263867304635,2.348248063431511
11438116799,Porte de Clichy - Place des Nations Unies,48.896737263309504,2.310542999196392
11437761399,Henri Barbusse - Bourguignons,48.91301722799713,2.2734212270774417
11437961617,Marceau Delorme - Pierre Brossolette,48.91206062860357,2.295897423568745
11004720021,Garibaldi - Gabriel Péri,48.905741911394,2.3316044208059
11437706131,Bateliers - Quai de Seine,48.915817585516,2.3239533298594
13373758036,Roland Garros - Jean Bouin,48.809460857173,2.2853198638301
13373801574,Gare RER,48.896280181078,2.4581568985227
13373712848,Place de la Paix - Abbé Saint-Pierre,48.86462724459225,2.2047570338469806
13373848216,Simone Signoret - Paris,48.903600624712865,2.465406596265139
6295,Pontoise - La Tournelle,48.850458009188,2.3524542754922
82402482,Gare de l'Est - Chateau Landon,48.879305,2.362424
129088667,Jonquière - Docteur Paul Brousse,48.894799816683985,2.318705212173216
54000604,Ordener - Poissonniers,48.891213890844654,2.351288666219873
43247738,Ruisseau - Ordener,48.89299462568024,2.340144887566567
102311820,Clignancourt - Ordener,48.891457726153774,2.348636478060487
213686196,Lauriston - Copernic,48.86926,2.289918
96512532,Joseph Sansboeuf - Saint Lazare,48.875315630653,2.3229019716382
19183755581,Choisy - Pointe d'Ivry,48.822154170359,2.3633708034878
18523643190,Gabriel Péri - Jules Ferry,48.926182814311,2.3912295762525
18908512040,Place De Fontenoy - Saxe,48.850270554523,2.3069813815839
18523627466,Suzanne Masson,48.923306888013,2.3847292397611
82457375,Volontaires - Lecourbe,48.84351378799,2.3065522313118
19902592897,Les Planètes,48.80929410761,2.4596271973784
19183922057,Tolbiac - Boussingault,48.826177754027,2.3420378552202
452341449,Choisy - Tolbiac,48.82591155587,2.3602393269539
82499609,Convention - Lourmel,48.842055041656,2.2859910875559
129042700,Granges aux Belles - Hôpital Saint-Louis,48.874794994841,2.366669436985
507934805,Ney - Porte de Clignancourt,48.8978867,2.3458001
18890164656,Square de Choisy - Eastman,48.828543456283,2.3583075090494
907054879,Liberté - Vert-de-Maisons,48.790147809608,2.4328628182411
18023659071,Place Farhat Hached,48.825487045602,2.3816306985827
549480297,Halle Freyssinet - Parvis Alan Turing,48.832846814471,2.3711421713233
66505511,François 1er - Montaigne,48.866887649978,2.3066755757207
653139063,Pont de Suresnes,48.867415092322,2.2258946679617
18206879942,Rampal - Belleville,48.873114661405,2.3798409114805
18099679477,Saint-Jacques - Soufflot,48.846280383395,2.3430785379567
256403519,Place Pigalle,48.8827555,2.3361566
312165511,Faubourg Du Temple - Republique,48.867872484749,2.3648982158072
39202840,Rochechouart - Martyrs,48.882193779572,2.3405495658517
74635382,Place de la Nation - Taillebourg,48.8488408,2.3973043
27415736,Jean Jaurès - Presles,48.907134414988,2.3960057280531
43165673,Belfort - Voltaire,48.8563358,2.3829901
121086415,Colisée - Champs-Elysées,48.870475399387,2.3076190799475
82417874,Alexandre Dumas - Voltaire,48.852888670365,2.3891476408096
653087180,Clichy - Douai,48.883687771522,2.328063700029
581480367,Fabre d'Eglantine - Place de la Nation,48.8471116,2.3956204
213687475,Traktir - Foch,48.872755334614,2.2915497802487
653131074,Vanne - Général de Gaulle,48.815007,2.328318
442739463,Place de la République - Temple,48.867211201859,2.3635464370545
129050965,Place de la République - Voltaire,48.866830968942,2.3654810339212
478952881,Boulets - Voltaire,48.85218705621,2.3890301585197
213999554,Jean Jaurès - Ouvrières Pivéreuses,48.910423437526,2.3995766043663
30641281,Place de la Montagne du Goulet,48.8443415,2.2773844
42907187,Richard Lenoir - Voltaire,48.86164273878,2.3727491497993
476053320,Ecole Militaire - Place Joffre,48.852060203583,2.3017993569374
54000567,Montreuil - Voltaire,48.850507011842,2.3930755582745
213684314,Fédération - Suffren,48.852828153442,2.2978776320815
19091372977,Mauroy - Cheminots,48.897715198403,2.357895075822
210573120,Hoche - Tilsitt,48.874836457837,2.2971323132515
100893610,Bourdonnais - Tour Eiffel,48.860897797941,2.295599598447
66491390,Taitbout - Châteaudun,48.876383969379,2.3353566779335
1062742831,Place Joffre - Frédéric le Play,48.853754486938,2.3044242337346
128915891,Octave Gréard - Tour Eiffel,48.856502977696,2.2931787543289
653042678,Quai de Béthune - Pont de la Tournelle,48.85097433194,2.3563072085381
19184128113,Préfecture de Créteil,48.783680285918,2.4544713672215
19186120360,Haut du Mont-Mesly,48.780191921646,2.4685737495183
19186208004,Stade de la Habette,48.774397033806,2.4668785263921
19186237098,Hôtel de Ville de Créteil,48.77699496201,2.4552552404284
54000572,Diderot - Pierre Bourdan,48.847648620797,2.3902582749724
19184196181,Créteil Pointe du Lac,48.769807356177,2.4623027310281
54000634,Bineau - Louise Michel,48.88666162207,2.2843274474144
70903158,Raymond Poincaré - Place Victor Hugo,48.87030612437,2.2850745414202
54000571,Dugommier,48.838811048815,2.3896577954292
1074187051,Hôtel de Ville d'Asnières sur Seine,48.90999330025577,2.288238108158112
19179850066,Centre Hospitalier Intercommunal de Créteil,48.797078298909,2.463801423807
19016711237,Place de la Gare,48.838513582184,2.1866139007512
19130603957,Créteil Village,48.79122395576,2.4642198533952
488800137,Portugais - Kléber,48.8712148,2.2937349
653175838,Gare de Chaville Rive Gauche,48.805160304345,2.188277207315
125542925,Louis Blanc - Aqueduc,48.882030182599,2.363561578095
19309244936,Créteil Pompadour,48.773011623355,2.435166164893
652120758,Place de la Porte de Châtillon,48.8242469,2.3186306
101761298,Place du Moulin de Javel,48.84021670922,2.2716060653329
27415150,Bobillot - Paulin Mery,48.829899841747,2.3543356766749
2616300654,Regnault - Patay,48.824305287067,2.3763057589531
19130022694,Iles de Loisirs de Créteil,48.780258200618,2.4455094301232
18656691283,Yves Farges - Route d'Enghien,48.95756799268,2.2834496977978
653152142,Château - République,48.905928,2.253629
384370499,Place Charles Vallin,48.835523812041,2.3025986552238
213987795,Wilson - Landy,48.91516726221354,2.357633225619793
2515686699,Borrégo - Gambetta,48.87330497045532,2.4014145880937576
339797666,Charles de Gaulle - Jean Lolive,48.8932644350857,2.4126765131950383
213945171,Noisy le Sec - Jean-Baptiste Clément,48.874515389637,2.4152836203575
123095125,Alibert - Jemmapes,48.871044051984,2.3661044619878
213683992,Cauchy - Cévennes,48.843372571022,2.2751328349113
653046369,Carrefour Pleyel,48.92034156960326,2.3438543826341625
27415224,Bir Hakeim,48.853844054334,2.289705348222
27414460,Danielle Casanova - Place Vendôme,48.868266498223,2.3304839059711
244498842,Bois de Vincennes - Gare,48.836022242887,2.470833995083
18795043822,Pailleron - Bouret,48.880516995482,2.3763902374411
437741660,Saint-Denis - Rivoli,48.859059340842,2.3476943001151
19335882998,Michelet - Dr Bauer,48.906125424194,2.3440374449846
126354477,Clichy - Place Blanche,48.883601088297,2.3332237824798
653205656,Gare de la Garenne-Colombes,48.909752,2.239145
18749423187,Jean Jaurès - Gare de Clamart,48.81321981219,2.2716768079163
2515636592,Mstislav Rostropovitch - Berthier,48.892120821173975,2.309234105050564
6296,Institut de France,48.857615678565,2.3358313530377
82328045,Victoria - Place du Chatelet,48.857992591527,2.3469167947769
207633746,Grande Armée - Brunel,48.876116,2.288124
49791363,Balzac - Champs Elysées,48.872699639621,2.3001953959465
1062807847,BNF - Bibliothèque Nationale de France,48.8350268238,2.3760157451034
478732841,Sebastopol - Rambuteau,48.86181809267,2.3501381278038
452347778,Daumesnil - Picpus,48.8374688,2.401765
213952930,Proudhon - Président Wilson,48.906442763495,2.3584905266762
2515855808,Madeleine Vionnet,48.902519074064,2.3740895837545
19331872653,Bleuets - Bordières,48.802117531472,2.4543687905029
102335085,Aristide Briand - Place de la Résistance,48.82124248401006,2.2511002421379094
653073004,Tremblay - Lac des Minimes,48.834131261494,2.4547516554594
117480156,Enfants du Paradis - Peupliers,48.833122686454,2.2571459412575
34742973,Place Balard,48.836395736424,2.2784192115068
394404659,Gare Saint-Lazare - Cour du Havre,48.875674400851,2.3265598341823
129026597,Caumartin - Provence,48.874422773426545,2.3284685611724854
368766689,Westermeyer - Paul Vaillant-Couturier,48.819116181578764,2.3966637253761296
516395829,Quai des Célestins - Henri IV,48.8512971,2.3624535
476155906,Saint-Antoine Sévigné,48.8550222,2.3612322
315022587,Malesherbes - Place de la Madeleine,48.870406028483,2.323243509808
